city,state,publish_date,url,title,category,population,lat,lng
Albertville,AL,03-17-2020 00:00,https://www.gadsdentimes.com/news/20200317/albertville-declares-coronavirus-emergency,Albertville declares coronavirus emergency,state_of_emergency,37220.0,34.2634,-86.2107
Birmingham,AL,03-24-2020 18:08,https://www.al.com/news/2020/03/woodfin-proposes-shelter-in-place-for-birmingham-including-curfews.html,Shelter-in-place order enacted in Birmingham to stop coronavirus spread,shelter_in_place,744189.0,33.5277,-86.7987
Boaz,AL,03-24-2020 00:00,https://www.gadsdentimes.com/news/20200324/boaz-declares-state-of-emergency-over-virus,Boaz declares state of emergency over virus,state_of_emergency,9652.0,34.1985,-86.1529
Carolina,AL,03-27-2020 00:00,https://www.cnbc.com/2020/03/27/north-carolina-gov-roy-cooper-orders-residents-to-stay-at-home-order-amid-coronavirus-outbreak.html,North Carolina Gov. Roy Cooper orders residents to stay at home order amid coronavirus outbreak,shelter_in_place,295.0,31.2337,-86.5227
Clanton,AL,03-17-2020 00:00,https://www.clantonadvertiser.com/2020/03/17/jemison-council-approves-covid-19-response-measures/,Jemison Council approves COVID-19 response measures - The Clanton Advertiser,None,5876.0,32.8439,-86.62299999999999
Daphne,AL,,https://www.fox10tv.com/news/coronavirus/daphne-declares-state-of-emergency-during-coronavirus-outbreak/article_4efd206a-685c-11ea-b694-f7b3c8675f7e.html,Daphne declares state of emergency during coronavirus outbreak,state_of_emergency,69065.0,30.6286,-87.8866
Daphne,AL,03-17-2020 14:27,https://www.wkrg.com/health/coronavirus/daphne-declares-state-of-emergency-for-coronavirus/,Daphne declares state of emergency for coronavirus,state_of_emergency,69065.0,30.6286,-87.8866
Egypt,AL,03-24-2020 21:33,https://www.reuters.com/article/us-health-coronavirus-egypt/egypt-declares-two-week-curfew-to-counter-coronavirus-idUSKBN21B1MR,Egypt declares two-week curfew to counter coronavirus,lockdown,810.0,34.0759,-86.1651
Fairhope,AL,,https://www.fox10tv.com/news/coronavirus/fairhope-mayor-to-recommend-canceling-arts-and-crafts-over-coronavirus/article_9035e0ae-6478-11ea-9b6e-73f82906e5e9.html,Fairhope mayor to recommend canceling Arts and Crafts over coronavirus.,None,20935.0,30.522,-87.8816
Jemison,AL,03-17-2020 00:00,https://www.clantonadvertiser.com/2020/03/17/jemison-council-approves-covid-19-response-measures/,Jemison Council approves COVID-19 response measures - The Clanton Advertiser,None,2627.0,32.9696,-86.7339
Kennedy,AL,03-28-2020 00:00,https://www.timescall.com/2020/03/28/cus-kennedy-higher-ed-leaders-seek-emergency-funds-amid-coronavirus-outbreak/,"CU’s Kennedy, higher ed leaders seek emergency funds amid coronavirus outbreak",None,428.0,33.5809,-87.9862
Oxford,AL,,https://www.annistonstar.com/news/coronavirus/oxford-council-declares-local-emergency-over-covid/article_8a9e8ef4-6859-11ea-90a8-9bf7ab52c3c0.html,Oxford council declares local emergency over COVID-19,state_of_emergency,21180.0,33.5966,-85.869
Pelham,AL,03-19-2020 00:00,https://www.shelbycountyreporter.com/2020/03/19/pelham-declares-state-of-emergency-to-combat-covid-19/,Pelham declares State of Emergency to combat COVID-19 - Shelby County Reporter,state_of_emergency,23493.0,33.3114,-86.7573
Providence,AL,,https://www.tapinto.net/towns/new-providence/sections/health-and-wellness/articles/no-new-covid-19-cases-reported-in-new-providence-borough-urges-residents-to-abide-by-safety-protocols,No New COVID-19 Cases Reported in New Providence; Borough Urges Residents to Abide by Safety Protocols,None,204.0,32.3424,-87.7761
Rosa,AL,03-05-2020 23:24,https://www.pressdemocrat.com/news/10788596-181/sutter-santa-rosa-orders-coronavirus,"Sutter Santa Rosa orders coronavirus quarantine for at least 30 hospital workers, union says",quarantine,319.0,33.9885,-86.5037
Tuscaloosa,AL,03-17-2020 00:00,https://www.wbrc.com/2020/03/17/tuscaloosa-county-commissioners-declare-state-emergency-over-coronavirus/,Tuscaloosa County Commissioners declare state of emergency over coronavirus,state_of_emergency,154204.0,33.2348,-87.5266
Ambler,AK,03-28-2020 00:00,https://www.adn.com/politics/2020/03/28/amid-criticism-and-the-coronavirus-pandemic-alaska-investment-board-approves-35-million-for-ambler-road/,"Amid criticism and the coronavirus pandemic, Alaska investment board approves $35 million for Ambler Road",None,263.0,67.0897,-157.8725
Cordova,AK,03-27-2020 00:00,https://www.thecordovatimes.com/2020/03/27/new-mandates-on-travel-distancing-as-covid-19-cases-hit-85-in-alaska/,"New mandates on travel, distancing as COVID-19 cases hit 85 in Alaska -The Cordova Times",social_distance,2187.0,60.5348,-145.6092
Goldstream,AK,03-25-2020 21:30,https://www.goldstreamgazette.com/news/covid-19-major-world-updates-930-p-m-u-s-senate-approves-2-trillion-relief-package/,"COVID-19 major world updates, 9:30 p.m.: U.S. Senate approves $2-trillion relief package – Goldstream News Gazette",None,3987.0,64.9339,-148.0083
Apache Junction,AZ,03-19-2020 00:00,https://www.azcentral.com/story/news/local/pinal/2020/03/19/apache-junction-closes-city-facilities-amid-growing-covid-19-concerns/2872002001/,"Apache Junction declares emergency, closes city facilities amid growing coronavirus concerns",state_of_emergency,40538.0,33.3985,-111.5351
Buckeye,AZ,03-18-2020 00:00,https://www.azcentral.com/story/news/local/southwest-valley/2020/03/18/buckeye-city-closures-curb-spread-coronavirus/2867703001/,"Buckeye declares local emergency, closes city facilities to curb spread of coronavirus",state_of_emergency,68453.0,33.4314,-112.6429
Congress,AZ,03-25-2020 00:00,https://chamberbusinessnews.com/2020/03/25/congress-declares-world-war-iii-on-coronavirus/,Congress declares World War III on coronavirus,disaster_declaration,1454.0,34.1526,-112.8642
Flagstaff,AZ,,https://www.azfamily.com/news/continuing_coverage/coronavirus_coverage/city-of-flagstaff-declares-state-of-emergency-amid-coronavirus-outbreak/article_b1ef8cfa-6706-11ea-b5c4-b3f4e5d4b35e.html,City of Flagstaff declares state of emergency amid coronavirus outbreak,state_of_emergency,78628.0,35.1872,-111.6195
Guadalupe,AZ,03-19-2020 00:00,https://www.azcentral.com/story/news/local/tempe/2020/03/19/guadalupe-arizona-council-vote-emergency-declaration-services-reduced/2872008001/,Guadalupe Council approves emergency declaration; town services reduced due to coronavirus,state_of_emergency,6525.0,33.3664,-111.9633
Marana,AZ,03-17-2020 00:00,https://kvoa.com/coronavirus-coverage/2020/03/17/mayor-of-marana-declares-local-emergency-to-combat-spread-of-covid-19/,Mayor of Marana declares Local Emergency to combat spread of COVID-19,state_of_emergency,44792.0,32.4355,-111.1558
Nogales,AZ,03-21-2020 00:00,https://kvoa.com/news/local-news/2020/03/21/nogales-declares-state-of-emergency/,Nogales declares state of emergency in response to Covid-19,state_of_emergency,30876.0,31.3624,-110.9336
Oro Valley,AZ,03-17-2020 00:00,https://kvoa.com/news/2020/03/17/oro-valley-mayor-declares-local-emergency-in-response-to-covid-19-pandemic/,Oro Valley mayor declares local emergency in response to COVID-19 pandemic,state_of_emergency,44350.0,32.4223,-110.9767
Paradise Valley,AZ,,"https://yourvalley.net/paradise-valley-independent/stories/paradise-valley-mayor-declares-state-of-emergency-for-covid-19,147701",Paradise Valley Mayor declares state of emergency for COVID-19,state_of_emergency,14293.0,33.5434,-111.9595
Pima,AZ,03-28-2020 00:00,https://www.tucsonweekly.com/TheRange/archives/2020/03/28/your-southern-az-coronovirus-roundup-for-saturday-march-28-az-cases-rise-to-773-x-cases-in-pima-county-romero-orders-closure-of-non-essent,"Your Southern AZ Coronovirus Roundup for Saturday, March 28: AZ Cases Rise to 773; 120 Cases in Pima County; Romero Orders Closure of Non-Essential Biz in Tucson and Urges Residents To Stay Home",shelter_in_place,2513.0,32.8886,-109.8437
Shonto,AZ,03-21-2020 23:51,https://navajotimes.com/coronavirus-updates/shonto-prep-tenant-tests-positive-for-covid-19-tenants-ordered-to-shelter-in-place/,Shonto Prep tenant tests positive for COVID-19; tenants ordered to shelter in place,shelter_in_place,543.0,36.5893,-110.6607
Somerton,AZ,,https://www.kawc.org/post/yuma-and-somerton-declare-state-emergency-covid-19,Yuma and Somerton Declare State of Emergency on COVID-19,state_of_emergency,19168.0,32.6009,-114.699
South Tucson,AZ,03-19-2020 00:00,https://www.kold.com/2020/03/19/south-tucson-mayor-declares-local-emergency-amid-coronavirus-outbreak/,South Tucson mayor declares local emergency amid coronavirus outbreak,state_of_emergency,5643.0,32.1955,-110.9692
Surprise,AZ,03-18-2020 00:00,https://www.azcentral.com/story/news/local/surprise/2020/03/18/surprise-cancels-programs-closes-meetings-public-halt-covid-19/2867766001/,"Surprise declares emergency, shuts down playgrounds, cancels events to slow spread of coronavirus",state_of_emergency,134085.0,33.68,-112.4524
Tempe,AZ,,https://www.statepress.com/article/2020/03/sppolitics-tempe-declares-state-of-emergency,Tempe declares citywide emergency to combat coronavirus spread,state_of_emergency,185038.0,33.3881,-111.9318
Tolleson,AZ,03-19-2020 00:00,https://www.azcentral.com/story/news/local/southwest-valley/2020/03/19/tolleson-declares-emergency-closes-bars-and-bans-dining-in-restaurants-curb-coronavirus/2874709001/,Tolleson joins other Arizona cities to declare emergency; city employee tests positive for coronavirus,state_of_emergency,7205.0,33.4484,-112.2561
Tusayan,AZ,03-19-2020 00:00,https://www.williamsnews.com/news/2020/mar/19/tusayan-approves-25000-aid-residents-affected-econ/,"Tusayan approves $25,000 to aid residents affected by economic shortages amid COVID-19 shutdowns",None,583.0,35.955,-112.1202
Yuma,AZ,,https://www.kawc.org/post/yuma-county-declares-emergency-due-covid-19,Yuma County Declares Emergency Due To COVID-19,state_of_emergency,138802.0,32.5991,-114.5488
Bay,AR,,https://www.msn.com/en-us/travel/article/coronavirus-impact-bay-area-restaurants-asking-for-support-after-accepting-take-out-only-orders/ar-BB11QWlQ?ocid=hplocalnews,Coronavirus impact: Bay Area restaurants asking for support after accepting take-out only orders,None,1805.0,35.7456,-90.5547
Benton,AR,03-16-2020 17:49,https://www.5newsonline.com/article/news/health/coronavirus/benton-county-emergency-proclamation-coronavirus/527-f2afd6b5-8741-4057-bbe6-a026bb4eb822,Benton County judge declares emergency proclamation to help combat coronavirus,state_of_emergency,35789.0,34.5771,-92.5715
Fayetteville,AR,03-13-2020 15:04,https://www.5newsonline.com/article/news/health/coronavirus/state-of-emergency-fayetteville-coronavirus/527-0e904612-698c-4297-b282-79bf9ae70d15,Fayetteville mayor declares State of Emergency over coronavirus threat,state_of_emergency,341890.0,36.0713,-94.166
Jonesboro,AR,03-29-2020 02:33,https://www.thesun.co.uk/news/11279640/huge-tornado-rips-through-jonesboro-in-arkansas-as-residents-remain-in-coronavirus-lockdown/,Huge tornado rips through Jonesboro in Arkansas as residents remain in coronavirus lockdown,lockdown,73788.0,35.8211,-90.6793
LaGrange,AR,03-17-2020 00:00,https://www.wtvm.com/2020/03/17/watch-live-emergency-meeting-held-troup-co-after-second-covid-case-confirmed/,State of emergency declared in LaGrange after second COVID-19 case confirmed in Troup Co.,state_of_emergency,77.0,34.6555,-90.7351
Pine Bluff,AR,03-28-2020 00:00,https://www.pbcommercial.com/news/20200328/city-of-pine-bluff-orders-curfew-as-precaution-against-covid-19,City of Pine Bluff orders curfew as precaution against COVID-19,lockdown,46850.0,34.2116,-92.0178
Adelanto,CA,03-28-2020 22:00,https://ktla.com/news/local-news/federal-judge-orders-release-of-2-immigrants-from-adelanto-detention-facility-over-covid-19-risks/,Federal judge orders release of 2 immigrants from Adelanto detention facility over COVID-19 risks,None,34066.0,34.5815,-117.4397
Adelanto,CA,03-13-2020 01:20,https://www.vvng.com/adelanto-council-declares-local-emergency-seeks-coronavirus-funding/,"Adelanto Council declares local emergency, seeks coronavirus funding",state_of_emergency,34066.0,34.5815,-117.4397
Alameda,CA,,https://www.ktvu.com/news/coronavirus-5-new-bay-area-cases-alameda-county-declares-health-emergency,Coronavirus: 5 new Bay Area cases; Alameda County declares health emergency,state_of_emergency,79177.0,37.766999999999996,-122.2673
Alhambra,CA,,https://www.alhambrasource.org/story/alhambra-council-declares-state-of-emergency-in-response-to-covid-19,Alhambra Council Declares State of Emergency in Response to COVID-19,state_of_emergency,85396.0,34.084,-118.1355
Alto,CA,03-12-2020 00:00,https://paloaltoonline.com/news/2020/03/12/palo-alto-declares-coronavirus-emergency,Palo Alto declares coronavirus 'state of emergency',state_of_emergency,751.0,37.9056,-122.5187
Angels,CA,,https://www.mymotherlode.com/news/local/1025565/angels-camp-council-to-declare-local-covid-19-emergency.html,Angels Camp Council To Declare Local COVID-19 Emergency,state_of_emergency,3723.0,38.0706,-120.5501
Apple Valley,CA,03-22-2020 05:42,https://www.vvng.com/town-of-apple-valley-declares-local-emergency-amid-coronavirus-pandemic/,Town of Apple Valley declares local emergency amid coronavirus pandemic,state_of_emergency,73077.0,34.5328,-117.2104
Arcadia,CA,03-21-2020 17:49,https://abc7.com/6035930,Coronavirus: Arcadia neighborhood outraged over Edison's planned power outage amid stay-at-home orders,shelter_in_place,58799.0,34.1342,-118.0373
Arcata,CA,03-21-2020 21:14,https://www.times-standard.com/arcata-declares-local-emergency-to-slow-covid-19-pandemic,Arcata declares local emergency to slow COVID-19 pandemic,state_of_emergency,33806.0,40.8615,-124.0757
Arroyo Grande,CA,03-14-2020 00:00,https://keyt.com/lifestyle/events/2020/03/14/arroyo-grande-makes-changes-and-closures-for-coronavirus-health-emergency/,Arroyo Grande makes changes and closures for coronavirus health emergency - KEYT,None,54620.0,35.1242,-120.5845
Beaumont,CA,03-18-2020 13:24,https://patch.com/california/banning-beaumont/city-beaumont-declares-local-emergency-due-coronavirus,City Of Beaumont Declares Local Emergency Due To Coronavirus,state_of_emergency,46967.0,33.907,-116.9762
Benicia,CA,03-17-2020 17:33,https://beniciaheraldonline.com/city-of-benicia-declares-local-emergency-in-response-to-covid-19/,City of Benicia declares Local Emergency in response to COVID-19,state_of_emergency,28343.0,38.0704,-122.1541
Beverly Hills,CA,03-16-2020 11:29,https://patch.com/california/beverlyhills/beverly-hills-declares-local-emergency-amid-coronavirus-concerns,Beverly Hills Declares Local Emergency Amid Coronavirus Concerns,state_of_emergency,34484.0,34.0786,-118.4021
Burlingame,CA,03-19-2020 00:00,https://sanfrancisco.cbslocal.com/2020/03/19/coronavirus-update-burlingame-senior-facility-outbreak-new-shelter-in-place-orders-cases-continue-to-grow/,Coronavirus Update: Burlingame Senior Facility Outbreak; New Shelter-In-Place Orders; Bay Area Cases On The Rise – CBS San Francisco,shelter_in_place,30686.0,37.586,-122.3669
Carson,CA,,https://www.nevadaappeal.com/news/carson-city-declares-state-of-emergency-due-to-coronavirus/,Carson City declares State of Emergency due to coronavirus,state_of_emergency,92735.0,33.8374,-118.2559
Clovis,CA,,https://www.fresnobee.com/news/local/article241251261.html,Clovis CA local emergency proclamation regarding coronavirus,state_of_emergency,109691.0,36.8277,-119.6838
Clovis,CA,03-17-2020 06:18,https://abc30.com/clovis-city-of-covid-19-coronavirus/6020306,City of Clovis declares local emergency amid COVID-19 concerns,state_of_emergency,109691.0,36.8277,-119.6838
Columbia,CA,03-15-2020 00:00,https://www.baltimoresun.com/coronavirus/bs-hs-howard-first-case-20200315-lpezhh7jd5g5jodvqzzh7w4blm-story.html,Howard County reports its first coronavirus case; Ball declares state of emergency; Columbia mall to close for a week; CA shuts down,state_of_emergency,2329.0,38.0333,-120.4097
Concord,CA,03-15-2020 12:29,https://patch.com/california/concord-ca/concord-declares-emergency-amid-coronavirus-outbreak,Concord Declares Emergency Amid Coronavirus Outbreak,state_of_emergency,654770.0,37.9722,-122.0016
Copperopolis,CA,03-10-2020 23:07,https://fox40.com/news/local-news/calaveras-county-declares-public-health-emergency-after-two-confirmed-cases-of-covid-19-in-copperopolis/,Calaveras County declares public health emergency after two confirmed cases of COVID-19 in Copperopolis,state_of_emergency,4214.0,37.9365,-120.6277
Corona,CA,,https://www.latimes.com/california/liveblog/coronavirus-live-updates-friday-march-27,Coronavirus live updates: Trump declares a major disaster in Michigan,disaster_declaration,167836.0,33.861999999999995,-117.5641
Corona,CA,03-04-2020 00:00,https://www.npr.org/sections/health-shots/2020/03/04/812121540/coronavirus-los-angeles-declares-emergency-and-u-s-reports-80-cases-in-13-states,"Coronavirus Deaths In Washington State And California, Where Gov. Declares Emergency",state_of_emergency,167836.0,33.861999999999995,-117.5641
Corona,CA,,https://www.bbc.com/news/world-us-canada-51740706,Coronavirus: California declares emergency after death,state_of_emergency,167836.0,33.861999999999995,-117.5641
Costa Mesa,CA,03-12-2020 00:00,https://losangeles.cbslocal.com/2020/03/12/costa-mesa-declares-local-emergency-over-coronavirus-pandemic-cancels-large-scale-gatherings/,"Costa Mesa Declares Local Emergency Over Coronavirus Pandemic, OCFA Closes All Fire Stations To Public",state_of_emergency,113825.0,33.6667,-117.9135
Costa Mesa,CA,03-14-2020 00:00,https://www.latimes.com/socal/daily-pilot/news/story/2020-03-14/costa-mesa-to-create-disaster-council-to-coordinate-coronavirus-response,Costa Mesa set to create Disaster Council to coordinate coronavirus response,None,113825.0,33.6667,-117.9135
Creston,CA,03-28-2020 12:15,https://www.crestonvalleyadvance.ca/news/latest-canadian-updates-about-7-of-covid-19-cases-require-hospitalization/,Latest Canadian updates: About 7% of COVID-19 cases require hospitalization – Creston Valley Advance,None,52.0,35.5173,-120.521
Creston,CA,03-28-2020 18:00,https://www.crestonvalleyadvance.ca/news/covid-19-world-update-enforceable-quarantine-in-nyc-france-orders-1-billion-masks/,COVID-19 world update: Enforceable quarantine in NYC?; France orders 1 billion masks – Creston Valley Advance,quarantine,52.0,35.5173,-120.521
Delano,CA,03-16-2020 22:23,https://www.kget.com/health/coronavirus/city-of-delano-to-declare-emergency-because-of-coronavirus-concerns/,City of Delano to declare emergency because of coronavirus concerns,state_of_emergency,54471.0,35.766999999999996,-119.2637
Dublin,CA,03-16-2020 18:39,https://patch.com/california/dublin/dublin-declares-state-emergency-coronavirus,Emergency Declaration Issued In Dublin: Coronavirus,state_of_emergency,60939.0,37.7161,-121.8964
Dublin,CA,03-03-2020 11:54,https://patch.com/california/dublin/norcal-coronavirus-emergency-center-located-dublin,NorCal Coronavirus Emergency Center Located In Dublin,None,60939.0,37.7161,-121.8964
El Cajon,CA,03-16-2020 14:05,https://www.kusi.com/city-of-el-cajon-declares-state-of-emergency-in-response-to-coronavirus/,City of El Cajon declares State of Emergency in response to Coronavirus -,state_of_emergency,103894.0,32.8017,-116.9604
El Cerrito,CA,03-13-2020 20:43,https://patch.com/california/elcerrito/el-cerrito-declares-state-emergency-coronavirus,El Cerrito Declares State Of Emergency: Coronavirus,state_of_emergency,25515.0,37.9197,-122.3025
Fontana,CA,03-14-2020 21:57,https://www.sbsun.com/fontana-declares-local-emergency-to-curb-coronavirus-spread,Fontana declares local emergency to curb coronavirus spread,state_of_emergency,211815.0,34.0968,-117.4599
Fortuna,CA,03-20-2020 00:00,https://www.times-standard.com/2020/03/20/fortuna-declares-local-emergency-in-response-to-covid-19/,Fortuna declares local emergency in response to COVID-19,state_of_emergency,13375.0,40.586,-124.1424
Fremont,CA,03-13-2020 20:26,https://patch.com/california/fremont/fremont-declares-state-emergency-coronavirus,Fremont Declares State Of Emergency: Coronavirus,state_of_emergency,234962.0,37.5265,-121.9852
Fremont,CA,03-14-2020 06:38,https://patch.com/california/fremont/city-fremont-declares-local-emergency-response-covid-19-pandemic,City Of Fremont Declares Local Emergency In Response To COVID-19 Pandemic,state_of_emergency,234962.0,37.5265,-121.9852
Fresno,CA,,https://www.fresnobee.com/news/coronavirus/article241580081.html,Fresno County CA issues orders to businesses to slow coronavirus,None,698021.0,36.7831,-119.7941
Fresno,CA,,https://www.fresnobee.com/news/coronavirus/article241230191.html,Fresno CA mayor declares coronavirus state of emergency,state_of_emergency,698021.0,36.7831,-119.7941
Fresno,CA,,https://www.fresnobee.com/news/coronavirus/article241210506.html,Fresno County declares state of emergency over coronavirus,state_of_emergency,698021.0,36.7831,-119.7941
Galt,CA,,https://www.lodinews.com/news/article_0c5f7db0-663c-11ea-bac0-6fb27f42d5a9.html,City of Galt declares emergency in response to coronavirus,state_of_emergency,27571.0,38.2693,-121.3
Gilroy,CA,03-14-2020 01:11,https://gilroydispatch.com/covid-19-gilroy-declares-emergency-cancels-most-meetings/,"COVID-19: Gilroy declares emergency, cancels most meetings",state_of_emergency,116235.0,37.0047,-121.5856
Glendale,CA,03-26-2020 00:00,https://www.latimes.com/socal/glendale-news-press/news/story/2020-03-26/lendale-state-of-emergency-extended-to-april-30,"With local coronavirus cases rising rapidly, Glendale extends state of emergency to April 30",state_of_emergency,203054.0,34.1818,-118.2468
Glendale,CA,03-25-2020 00:00,https://www.latimes.com/socal/glendale-news-press/news/story/2020-03-25/glendale-bans-rent-increases-amid-coronavirus-emergency,"Glendale halts rent increases amid coronavirus emergency, as some tenants call for ‘rent freeze’",None,203054.0,34.1818,-118.2468
Glendale,CA,03-20-2020 00:00,https://www.latimes.com/socal/glendale-news-press/news/story/2020-03-20/tn-gnp-me-glendale-follows-safer-at-home-order,"Coronavirus: Glendale follows L.A. County’s ‘Safer at Home’ order, requiring the closure of more businesses",shelter_in_place,203054.0,34.1818,-118.2468
Goleta,CA,03-18-2020 00:00,https://www.independent.com/2020/03/18/goleta-city-council-takes-emergency-action-to-prevent-spread-of-covid-19/,Goleta City Council Takes Emergency Action to Prevent Spread of COVID-19,None,31116.0,34.436,-119.8595
Goleta,CA,03-16-2020 00:00,https://www.independent.com/2020/03/16/city-of-goleta-proclaims-local-emergency-and-implements-enhanced-measures-to-help-prevent-spread-of-covid-19/,City of Goleta Proclaims Local Emergency and Implements Enhanced Measures to Help Prevent Spread of COVID-19,state_of_emergency,31116.0,34.436,-119.8595
Greenview,CA,,https://globalnews.ca/news/6721593/coronavirus-covid-19-greenview-alberta-state-of-emergency/,M.D. of Greenview No. 16 declares local state of emergency over COVID-19 crisis,state_of_emergency,175.0,41.5471,-122.9185
Hanford,CA,,https://hanfordsentinel.com/news/local/hanford-city-council-declares-local-emergency-in-regards-to-covid/article_ebe583b0-11a3-581d-a104-ee28766017c6.html,Hanford City Council declares local emergency in regards to COVID-19,state_of_emergency,92066.0,36.3264,-119.6544
Healdsburg,CA,03-13-2020 10:30,https://patch.com/california/healdsburg/healdsburg-declares-local-emergency-due-covid-19,Healdsburg Declares Local Emergency Due To COVID-19,state_of_emergency,11840.0,38.6229,-122.8651
Healdsburg,CA,03-03-2020 03:18,https://abc7news.com/5980442,"Coronavirus outbreak: Sonoma County officials declare health emergency, healdsburg school closes",state_of_emergency,11840.0,38.6229,-122.8651
Healdsburg,CA,,http://www.sonomawest.com/the_healdsburg_tribune/news/healdsburg-declares-local-emergency-in-response-to-covid/article_6d4b150e-6488-11ea-bfd8-17cf1711399f.html,Healdsburg declares local emergency in response to COVID-19,state_of_emergency,11840.0,38.6229,-122.8651
Hemet,CA,,https://myvalleynews.com/hemet-city-council-proclaims-community-emergency-over-the-coronavirus-in-special-teleconference-meet/,Hemet City Council proclaims ‘community emergency’ over the coronavirus in special teleconference meet,state_of_emergency,176892.0,33.7341,-116.9969
Hermosa Beach,CA,03-16-2020 18:40,https://patch.com/california/hermosabeach/coronavirus-hermosa-beach-considers-declaring-local-emergency,Coronavirus: Hermosa Beach Considers Declaring Local Emergency,state_of_emergency,19708.0,33.8654,-118.3966
Highland,CA,03-25-2020 19:55,https://www.redlandsdailyfacts.com/highland-declares-emergency-in-response-to-coronavirus,Highland declares emergency in response to coronavirus,state_of_emergency,55342.0,34.1113,-117.1654
Hoopa,CA,03-05-2020 00:00,http://kymkemp.com/2020/03/05/hoopa-valley-tribe-chairman-declares-emergency-due-to-coronavirus/,Hoopa Valley Tribe Chairman Declares Emergency Due to Coronavirus – Redheaded Blackbelt,state_of_emergency,3393.0,41.0803,-123.6972
Huntington Beach,CA,03-17-2020 00:00,https://www.latimes.com/socal/daily-pilot/news/story/2020-03-17/huntington-beach-closes-libraries-and-declares-local-emergency-in-response-to-coronavirus-outbreak,Huntington Beach closes libraries and declares local emergency in response to coronavirus outbreak,state_of_emergency,201874.0,33.696,-118.0025
Huron,CA,,https://www.bayshorebroadcasting.ca/news_item.php?NewsID=116224,"Huron County Declares State Of Emergency, In Response To COVID-19",state_of_emergency,7311.0,36.204,-120.0961
Indio,CA,03-16-2020 18:45,https://patch.com/california/palmdesert/city-indio-proclaims-local-emergency-due-coronavirus,City Of Indio Proclaims Local Emergency Due To Coronavirus,state_of_emergency,408097.0,33.7346,-116.2346
Laguna Beach,CA,03-27-2020 00:00,https://www.latimes.com/socal/daily-pilot/news/story/2020-03-27/laguna-beach-may-ask-landlords-to-defer-rent-and-evictions-through-may,Laguna Beach considers seeking renter relief amid coronavirus; governor orders statewide ban on evictions,None,23147.0,33.5449,-117.7613
Laguna Beach,CA,03-15-2020 23:04,https://patch.com/california/lagunabeach/city-laguna-beach-declares-local-emergency-covid-19,City of Laguna Beach Declares Local Emergency to COVID-19,state_of_emergency,23147.0,33.5449,-117.7613
Laguna Beach,CA,03-16-2020 00:00,https://www.latimes.com/socal/daily-pilot/news/story/2020-03-16/laguna-beach-closes-city-hall-to-public-declares-local-emergency-in-response-to-coronavirus,Laguna Beach closes City Hall to public after declaring local emergency in response to the coronavirus,state_of_emergency,23147.0,33.5449,-117.7613
Lennox,CA,03-26-2020 19:36,http://kingstonherald.com/release/lennox-addington-state-emergency-2010328499,Lennox and Addington County Declares State of Emergency due to COVID-19 Pandemic,state_of_emergency,21537.0,33.938,-118.3586
Livermore,CA,03-26-2020 12:00,https://patch.com/california/livermore/coronavirus-evictions-halted-livermore,Evictions Halted In Livermore Amid Coronavirus Emergency,None,91030.0,37.6861,-121.7608
Livermore,CA,03-13-2020 19:49,https://patch.com/california/livermore/coronavirus-local-emergency-declared-livermore,Coronavirus: Local Emergency Declared In Livermore,state_of_emergency,91030.0,37.6861,-121.7608
London,CA,,https://globalnews.ca/news/6708850/london-state-of-emergency-coronavirus-covid-19/,City of London declares state of emergency over coronavirus pandemic,state_of_emergency,1872.0,36.481,-119.444
London,CA,,https://globalnews.ca/news/6742776/coronavirus-city-tipline-london-covid-19/,Coronavirus: New city tipline looks to crack down on Londoners violating COVID-19 orders,None,1872.0,36.481,-119.444
Malibu,CA,03-16-2020 13:19,https://patch.com/california/malibu/malibu-declares-local-emergency-amid-coronavirus-pandemic,Malibu Declares Local Emergency Amid Coronavirus Pandemic,state_of_emergency,12877.0,34.0368,-118.7845
Manhattan Beach,CA,03-16-2020 14:37,https://patch.com/california/manhattanbeach/manhattan-beach-declares-local-emergency-over-coronavirus,Manhattan Beach Declares Local Emergency Over Coronavirus,state_of_emergency,35924.0,33.8895,-118.3972
Manhattan Beach,CA,03-20-2020 17:23,https://patch.com/california/manhattanbeach/manhattan-beach-prohibits-non-essential-construction-coronavirus,Manhattan Beach Prohibits Non-Essential Construction: Coronavirus,None,35924.0,33.8895,-118.3972
Manila,CA,03-14-2020 09:34,https://www.ctvnews.ca/health/coronavirus/philippines-declares-curfew-in-manila-to-fight-coronavirus-1.4853140,Philippines declares curfew in Manila to fight coronavirus,lockdown,823.0,40.8513,-124.1631
Mendocino,CA,03-05-2020 06:43,https://mendovoice.com/2020/03/mendocino-county-california-declare-states-of-emergency-in-anticipation-of-covid-19-county-sets-up-info-hotline-still-no-cases-identified-in-county/,"Mendocino County, California, declare states of emergency in anticipation of COVID-19, county sets up info hotline -- still no cases identified in county • The Mendocino Voice",state_of_emergency,664.0,39.311,-123.7908
Menlo Park,CA,03-12-2020 12:16,https://www.kron4.com/news/bay-area/menlo-park-declares-local-emergency-over-coronavirus/,Menlo Park declares local emergency over coronavirus,state_of_emergency,34357.0,37.4686,-122.1672
Menlo Park,CA,03-13-2020 09:36,https://patch.com/california/menlopark-atherton/menlo-park-declares-local-emergency-over-covid-19,Menlo Park Declares Local Emergency Over Covid-19,state_of_emergency,34357.0,37.4686,-122.1672
Merced,CA,,https://www.mercedsunstar.com/news/coronavirus/article241233151.html,"Coronavirus emergency declared by Merced, CA supervisors",state_of_emergency,144117.0,37.3057,-120.4779
Merced,CA,,https://www.mercedsunstar.com/news/coronavirus/article241185291.html,"Coronavirus health emergency in Merced County, City of Merced",state_of_emergency,144117.0,37.3057,-120.4779
Mesa,CA,03-12-2020 00:00,https://losangeles.cbslocal.com/2020/03/12/costa-mesa-declares-local-emergency-over-coronavirus-pandemic-cancels-large-scale-gatherings/,"Costa Mesa Declares Local Emergency Over Coronavirus Pandemic, OCFA Closes All Fire Stations To Public",state_of_emergency,288.0,37.4189,-118.5424
Modesto,CA,,https://www.modbee.com/living/health-fitness/article241193151.html,Modesto CA declares emergency to combat coronavirus,state_of_emergency,381398.0,37.6374,-121.0028
Monterey,CA,03-06-2020 00:00,https://www.thecalifornian.com/story/news/2020/03/06/gonzales-california-cancels-community-summit-over-coronavirus-covid-19-covid-19-flu-concerns/4980632002/,"Monterey County declares local emergency related to COVID-19, local events canceled",state_of_emergency,28639.0,36.5922,-121.8807
Moraga,CA,03-17-2020 20:55,https://patch.com/california/lamorinda/moraga-coronavirus-town-declares-local-emergency,Moraga Coronavirus: Town Declares Local Emergency,state_of_emergency,17630.0,37.8438,-122.1225
Morro Bay,CA,,https://www.sanluisobispo.com/news/local/article241209836.html,Coronavirus: Morro Bay declares emergency after SLO County case,state_of_emergency,10635.0,35.3681,-120.8482
Mountain View,CA,03-12-2020 00:00,https://www.mv-voice.com/news/2020/03/12/mountain-view-announces-state-of-emergency-over-spread-of-coronavirus,Mountain View announces state of emergency over spread of coronavirus,state_of_emergency,81438.0,37.4,-122.0796
Napa,CA,03-17-2020 05:30,https://patch.com/california/napavalley/local-emergencies-declared-4-napa-county-cities-coronavirus,Local Emergencies Declared In 4 Napa County Cities: Coronavirus,state_of_emergency,87032.0,38.2976,-122.3011
Oakland,CA,03-12-2020 00:26,https://abc7news.com/health/coronavirus-concerns-oakland-declares-state-of-emergency/6004930/,"Coronavirus concerns: Oakland declares state of emergency, bans mass gatherings",state_of_emergency,425195.0,37.7903,-122.2165
Oakville,CA,03-24-2020 11:00,https://www.insidehalton.com/news-story/9914656--a-danger-of-major-proportions-state-of-emergency-declared-in-oakville-due-to-coronavirus-spreading-locally/,'A danger of major proportions': State of emergency declared in Oakville due to coronavirus spreading locally,state_of_emergency,178.0,38.4384,-122.4067
Pacific Grove,CA,,http://www.montereycountyweekly.com/blogs/news_blog/carmel-monterey-and-pacific-grove-proclaim-emergencies-to-protect-citizens/article_36345348-656c-11ea-a716-73483b7062db.html,"Carmel, Monterey and Pacific Grove proclaim emergencies to protect citizens during COVID-19 outbreak.",state_of_emergency,15698.0,36.6191,-121.9255
Palm Desert,CA,03-17-2020 17:49,https://patch.com/california/palmdesert/palm-desert-declares-local-emergency-coronavirus,Palm Desert Declares Local Emergency: Coronavirus,state_of_emergency,52932.0,33.7378,-116.3695
Palm Desert,CA,03-17-2020 00:00,https://losangeles.cbslocal.com/2020/03/17/coronavirus-palm-desert-emergency/,"Palm Desert Issues Local Emergency, Closes City Buildings Due To Coronavirus Outbreak",state_of_emergency,52932.0,33.7378,-116.3695
Palm Springs,CA,03-16-2020 15:32,https://patch.com/california/palmdesert/coronavirus-city-palm-springs-declares-local-emergency,Coronavirus: City Of Palm Springs Declares Local Emergency,state_of_emergency,48142.0,33.8017,-116.5382
Palm Springs,CA,03-18-2020 00:00,https://www.latimes.com/california/story/2020-03-18/with-three-coronavirus-deaths-in-area-palm-springs-issues-shelter-in-place-rules,"With three coronavirus deaths in area, Palm Springs issues shelter-in-place order",shelter_in_place,48142.0,33.8017,-116.5382
Palo Alto,CA,03-12-2020 00:00,https://paloaltoonline.com/news/2020/03/12/palo-alto-declares-coronavirus-emergency,Palo Alto declares coronavirus 'state of emergency',state_of_emergency,67178.0,37.3913,-122.1467
Pasadena,CA,03-04-2020 17:42,https://www.pasadenastarnews.com/pasadena-to-declare-state-of-emergency-over-coronavirus,Pasadena declares state of emergency over coronavirus,state_of_emergency,142647.0,34.1597,-118.139
Pasadena,CA,03-09-2020 10:58,https://patch.com/california/pasadena-ca/pasadena-declares-public-health-emergency-covid-19-response,Pasadena Declares Public Health Emergency For COVID-19 Response,state_of_emergency,142647.0,34.1597,-118.139
Peters,CA,03-04-2020 00:00,https://mccaul.house.gov/media-center/press-releases/in-wake-of-coronavirus-outbreak-reps-mccaul-peters-engel-guthrie-eshoo,"In Wake of Coronavirus Outbreak, Reps. McCaul, Peters, Engel, Guthrie, Eshoo, Hudson, Schrader, Bilirakis Introduce Bipartisan Bill to Prevent Critical Access Drug Shortages",None,465.0,37.9763,-121.0439
Pismo Beach,CA,,https://www.sanluisobispo.com/news/coronavirus/article241249011.html,Pismo Beach CA declares local coronavirus emergency,state_of_emergency,8237.0,35.1492,-120.6506
Redding,CA,03-17-2020 00:00,https://www.redding.com/story/news/2020/03/17/redding-vote-enacting-state-emergency-due-covid-19-threat/5068847002/,"UPDATE: Redding declares coronavirus emergency. Also, police department makes changes",state_of_emergency,120270.0,40.5698,-122.365
Redondo Beach,CA,03-16-2020 13:39,https://patch.com/california/redondobeach/redondo-beach-declares-local-emergency-farmers-markets-closed,Redondo Beach Declares Local Emergency Amid Coronavirus Pandemic,state_of_emergency,67908.0,33.8574,-118.3766
Redwood City,CA,03-15-2020 12:45,https://patch.com/california/redwoodcity-woodside/redwood-city-declares-emergency-amid-coronavirus-outbreak,Redwood City Declares Emergency Amid Coronavirus Outbreak,state_of_emergency,86685.0,37.5026,-122.2252
Riverside,CA,03-08-2020 23:03,https://abc7.com/health/coronavirus-riverside-county-declares-health-emergency/5995948/,Coronavirus: Riverside County declares health emergency after 2 cases diagnosed,state_of_emergency,2084749.0,33.9381,-117.3948
Rolling Hills,CA,03-17-2020 14:21,https://patch.com/california/palosverdes/coronavirus-rolling-hills-estates-declares-local-emergency,Coronavirus: Rolling Hills Estates Declares Local Emergency,state_of_emergency,1882.0,33.76,-118.3471
Rolling Hills Estates,CA,03-17-2020 14:21,https://patch.com/california/palosverdes/coronavirus-rolling-hills-estates-declares-local-emergency,Coronavirus: Rolling Hills Estates Declares Local Emergency,state_of_emergency,8226.0,33.7783,-118.3508
Sacramento,CA,,https://www.sacbee.com/news/local/health-and-medicine/article240941561.html,Sacramento County CA declares emergency amid coronavirus,state_of_emergency,1854698.0,38.5667,-121.4683
San Bernardino,CA,03-19-2020 19:15,https://www.sbsun.com/coronavirus-concerns-lead-san-bernardino-to-declare-emergency-eviction-moratorium,"Coronavirus concerns lead San Bernardino to declare emergency, eviction moratorium",state_of_emergency,216995.0,34.1417,-117.2945
San Joaquin,CA,03-17-2020 00:00,https://www.recordnet.com/news/20200317/san-joaquin-county-declares-emergency-over-coronavirus,San Joaquin County declares emergency over coronavirus,state_of_emergency,4024.0,36.6057,-120.1897
San Ramon,CA,03-18-2020 11:26,https://patch.com/california/sanramon/coronavirus-emergency-declaration-issued-san-ramon,Coronavirus: Emergency Declaration Issued In San Ramon,state_of_emergency,75931.0,37.7625,-121.9365
Santa Barbara,CA,,https://www.noozhawk.com/article/santa_barbara_county_declares_public_health_emergency_for_coronavirus,Santa Barbara County Declares Public Health Emergency for Coronavirus,state_of_emergency,204034.0,34.4285,-119.7202
Santa Clarita,CA,03-13-2020 16:11,https://signalscv.com/2020/03/coronavirus-santa-clarita-declares-local-emergency/,Coronavirus: Santa Clarita declares local emergency,state_of_emergency,309378.0,34.4155,-118.4992
Santa Maria,CA,03-19-2020 19:43,https://www.ksby.com/news/coronavirus/santa-maria-declares-local-emergency-in-response-to-covid-19-outbreak,Santa Maria declares local emergency in response to COVID-19 outbreak,state_of_emergency,140219.0,34.9333,-120.4432
Santa Monica,CA,03-14-2020 12:20,https://patch.com/california/santamonica/santa-monica-confirms-first-coronavirus-case-declares-emergency,"Santa Monica Confirms First Coronavirus Case, Declares Emergency",state_of_emergency,92306.0,34.0232,-118.4813
Scotia,CA,,https://globalnews.ca/news/6714640/coronavirus-update-nova-scotia/,"Nova Scotia declares state of emergency, announces 7 new cases of COVID-19",state_of_emergency,734.0,40.4774,-124.1032
Shafter,CA,03-18-2020 04:10,https://www.turnto23.com/news/coronavirus/city-of-shafter-declares-local-state-of-emergency-due-to-covid-19-concerns,City of Shafter declares local state of emergency due to COVID-19 concerns,state_of_emergency,20889.0,35.4794,-119.2013
Solana Beach,CA,03-21-2020 00:00,https://www.delmartimes.net/news/story/2020-03-21/solana-beach-declares-local-emergency-due-to-coronavirus,Solana Beach declares local emergency due to coronavirus,state_of_emergency,13444.0,32.9942,-117.2575
Solvang,CA,,https://santamariatimes.com/news/local/solvang-city-council-calls-emergency-meeting-tonight-over-coronavirus/article_0ee561cd-5cad-56b9-b985-db0f79e79257.html,Solvang City Council calls emergency meeting tonight over coronavirus,None,16741.0,34.5936,-120.1401
Sonoma,CA,03-05-2020 08:59,https://www.pressdemocrat.com/news/10783181-181/sonoma-county-california-declare-emergencies,"Sonoma County, California declare emergencies in wake of state’s first coronavirus death",state_of_emergency,34089.0,38.2902,-122.4598
Sonoma,CA,03-03-2020 03:18,https://abc7news.com/5980442,"Coronavirus outbreak: Sonoma County officials declare health emergency, healdsburg school closes",state_of_emergency,34089.0,38.2902,-122.4598
South Lake Tahoe,CA,,https://www.tahoedailytribune.com/news/city-of-south-lake-tahoe-declares-emergency-due-to-coronavirus/,City of South Lake Tahoe declares emergency due to coronavirus,state_of_emergency,29890.0,38.9393,-119.9828
Stockton,CA,03-12-2020 00:00,https://www.recordnet.com/news/20200312/stockton-declares-state-of-emergency-due-to-coronavirus,Stockton declares state of emergency due to coronavirus,state_of_emergency,394467.0,37.9766,-121.3111
Stratford,CA,,https://globalnews.ca/news/6737379/coronavirus-pandemic-stratford-perth-county-declare-state-of-emergency/,"Coronavirus pandemic: Stratford, Perth County declare state of emergency",state_of_emergency,966.0,36.1884,-119.8224
Suisun City,CA,03-17-2020 05:50,https://www.dailyrepublic.com/all-dr-news/solano-news/fairfield/fairfield-suisun-city-officials-declare-state-of-emergency-due-to-virus-spread/,"Fairfield, Suisun City officials declare state of emergency due to virus spread",state_of_emergency,29639.0,38.2471,-122.0086
Sunnyvale,CA,03-12-2020 20:46,https://www.svvoice.com/city-of-sunnyvale-declares-state-of-emergency-due-to-coronavirus-outbreak/,City of Sunnyvale Declares State of Emergency due to Coronavirus Outbreak,state_of_emergency,153656.0,37.3836,-122.0257
Sutter,CA,,https://yubanet.com/regional/bi-county-health-officer-recommends-state-of-emergency-for-covid-19-preparedness-in-yuba-and-sutter-counties/,Bi-County Health Officer Recommends State of Emergency for COVID-19 Preparedness in Yuba and Sutter counties,state_of_emergency,2948.0,39.1557,-121.7492
Temecula,CA,03-18-2020 12:32,https://patch.com/california/temecula/city-temecula-proclaims-local-emergency-due-coronavirus,City Of Temecula Proclaims Local Emergency Due To Coronavirus,state_of_emergency,114327.0,33.4928,-117.1315
Torrance,CA,03-13-2020 21:21,https://www.dailybreeze.com/city-of-torrance-declares-state-of-local-emergency-amid-coronavirus-concerns,Torrance declares state of local emergency amid coronavirus concerns,state_of_emergency,146758.0,33.8346,-118.3417
Truckee,CA,,https://www.sierrasun.com/news/health-wellness/town-of-truckee-declares-local-emergency-over-coronavirus/,Town of Truckee declares local emergency over coronavirus,state_of_emergency,12418.0,39.3454,-120.1848
Twain,CA,,https://www.mymotherlode.com/news/local/1027591/mark-twain-medical-center-enacts-coronavirus-visitor-policy.html,Mark Twain Medical Center Enacts Coronavirus Visitor Policy,None,41.0,40.0355,-121.0404
Upland,CA,03-16-2020 23:53,https://www.dailybulletin.com/upland-proclaims-local-emergency-closes-library-and-other-facilities-due-to-coronavirus,"Upland proclaims local emergency, closes library and other facilities due to coronavirus",state_of_emergency,76999.0,34.1178,-117.6604
Vacaville,CA,03-18-2020 22:53,https://www.thereporter.com/coronavirus-vacaville-declares-local-emergency,Coronavirus: Vacaville declares local emergency,state_of_emergency,100801.0,38.359,-121.96799999999999
Vacaville,CA,03-19-2020 05:30,https://www.dailyrepublic.com/all-dr-news/solano-news/vacaville/vacaville-declares-its-own-covid-19-emergency/,Vacaville declares its own Covid-19 emergency,state_of_emergency,100801.0,38.359,-121.96799999999999
Vacaville,CA,03-21-2020 23:30,https://www.thereporter.com/coronavirus-vacaville-city-council-to-vote-on-local-emergency-declaration,Coronavirus: Vacaville City Council to vote on local emergency declaration,state_of_emergency,100801.0,38.359,-121.96799999999999
Val Verde,CA,,http://delrionewsherald.com/news/article_0e462d88-67e8-11ea-ae46-bb0e1395731e.html,Val Verde County judge issues declaration of local disaster for COVID-19 emergency,state_of_emergency,2928.0,34.4504,-118.6717
Vallejo,CA,03-15-2020 00:06,https://www.timesheraldonline.com/vallejo-city-council-set-to-declare-local-state-of-emergency-amid-covid-19-outbreak,Vallejo City Council set to declare local state of emergency amid COVID-19 outbreak,state_of_emergency,173844.0,38.1133,-122.2359
Victor,CA,03-18-2020 04:49,https://www.vvng.com/city-of-victorville-declares-local-emergency-amid-coronavirus-concerns/,City of Victorville Declares Local Emergency Amid Coronavirus Concerns,state_of_emergency,384.0,38.1385,-121.1987
Victorville,CA,03-18-2020 04:49,https://www.vvng.com/city-of-victorville-declares-local-emergency-amid-coronavirus-concerns/,City of Victorville Declares Local Emergency Amid Coronavirus Concerns,state_of_emergency,346948.0,34.5277,-117.3536
Visalia,CA,03-17-2020 00:00,https://www.visaliatimesdelta.com/story/news/2020/03/17/supervisors-visalia-declare-states-emergency-over-covid-19/5068654002/,"Visalia, Board of Supervisors declare states of emergency over COVID-19, Tulare likely to follow",state_of_emergency,234573.0,36.3276,-119.3269
Wallace,CA,,https://www.empireadvance.ca/news/local-news/wallace-woodworth-meetings-to-comply-with-covid-19-safety-mandate-1.24106599,Wallace-Woodworth meetings to comply with COVID-19 safety mandate,None,1002.0,38.1978,-120.9586
Washington,CA,03-04-2020 00:00,https://www.npr.org/sections/health-shots/2020/03/04/812121540/coronavirus-los-angeles-declares-emergency-and-u-s-reports-80-cases-in-13-states,"Coronavirus Deaths In Washington State And California, Where Gov. Declares Emergency",state_of_emergency,78.0,39.3591,-120.7906
Waterloo,CA,,https://globalnews.ca/news/6729364/coronavirus-waterloo-region-state-of-emergency/,"Coronavirus: Waterloo Region, municipalities declare state of emergency",state_of_emergency,750.0,38.0365,-121.1846
Watsonville,CA,03-13-2020 12:39,https://patch.com/california/watsonville/coronavirus-local-health-emergency-declared-watsonville,Coronavirus: Local Health Emergency Declared In Watsonville,state_of_emergency,77700.0,36.9206,-121.7706
Watsonville,CA,03-24-2020 11:17,https://patch.com/california/watsonville/coronavirus-watsonville-halts-evictions,Watsonville Halts Evictions Amid Coronavirus State Of Emergency,state_of_emergency,77700.0,36.9206,-121.7706
Yolo,CA,03-06-2020 00:00,http://www.capradio.org/articles/2020/03/06/yolo-county-reports-first-confirmed-coronavirus-case-declares-local-emergency/,"Yolo County Reports First Confirmed Coronavirus Case, Declares Local Emergency",state_of_emergency,402.0,38.7405,-121.8093
Yolo,CA,03-08-2020 11:54,https://www.dailydemocrat.com/yolo-supervisors-to-declare-emergency-over-coronavirus,Yolo supervisors to declare emergency over coronavirus,state_of_emergency,402.0,38.7405,-121.8093
Yolo,CA,03-10-2020 01:00,https://www.dailydemocrat.com/yolo-county-declares-local-emergency-over-coronavirus,Yolo County declares local emergency over coronavirus,state_of_emergency,402.0,38.7405,-121.8093
Yountville,CA,,https://napavalleyregister.com/news/local/yountville-veterans-home-closes-to-most-visitors-in-wake-of/article_d1fe5d7b-2502-5de1-b849-dd908f32675a.html,Yountville Veterans Home closes to most visitors in wake of coronavirus emergency,None,2924.0,38.3963,-122.3671
Yuba City,CA,,https://www.appeal-democrat.com/news/urgent/yuba-city-declares-local-emergency-due-to-coronavirus/article_6fd64f4c-6d79-11ea-a3d0-7f88fd678747.html,Yuba City declares local emergency due to coronavirus,state_of_emergency,120186.0,39.1357,-121.6381
Bayfield,CO,,https://pinerivertimes.com/articles/131860,Bayfield declares state of emergency in response to COVID-19,state_of_emergency,2968.0,37.2341,-107.5952
Boulder,CO,03-26-2020 00:00,https://www.timescall.com/2020/03/26/boulder-county-sees-first-coronavirus-death/,"Boulder County rescinds stay-at-home order, adopts statewide measure with similar directives to curb coronavirus spread",shelter_in_place,126054.0,40.0249,-105.2523
Breckenridge,CO,,https://www.summitdaily.com/news/silverthorne-and-breckenridge-make-plans-for-local-health-emergencies-related-to-coronavirus/,Silverthorne and Breckenridge make plans for local health emergencies related to coronavirus,None,7791.0,39.4994,-106.0433
Carbondale,CO,,https://www.postindependent.com/news/carbondale-declares-covid-19-emergency/,Carbondale declares COVID-19 emergency,state_of_emergency,7597.0,39.3947,-107.2145
Crawford,CO,,https://www.meadvilletribune.com/coronavirus/crawford-county-declares-disaster-emergency-over-covid/article_5db09bfc-687d-11ea-98e1-1f9363c26172.html,Crawford County declares disaster emergency over COVID-19,state_of_emergency,422.0,38.7053,-107.61
Crawford,CO,03-23-2020 00:00,https://www.bucyrustelegraphforum.com/story/news/2020/03/23/coronavirus-ohio-crawford-county-declares-state-emergency/2900517001/,Coronavirus in Ohio: Crawford County declares state of emergency,state_of_emergency,422.0,38.7053,-107.61
Crook,CO,03-13-2020 00:00,https://ktvz.com/news/deschutes-county/2020/03/13/deschutes-commissioners-declare-state-of-emergency/,"C.O. COVID-19 news: Govts. declare states of emergency, Jefferson-Crook delay trials",state_of_emergency,107.0,40.8589,-102.8014
Del Norte,CO,03-24-2020 00:00,https://wildrivers.lostcoastoutpost.com/2020/mar/24/emergency-officials-prepare-potential-surge-cases/,Emergency Officials Prepare For Potential Surge of Cases Once COVID-19 Shows Up In Del Norte County,None,1578.0,37.6784,-106.3539
Eagle,CO,,https://www.vaildaily.com/news/third-case-of-coronavirus-confirmed-in-eagle-county-as-gov-jared-polis-declares-state-of-emergency/,Third case of coronavirus confirmed in Eagle County as Gov. Jared Polis declares state of emergency,state_of_emergency,6408.0,39.6368,-106.8123
Eaton,CO,03-16-2020 00:00,https://www.lansingstatejournal.com/story/news/2020/03/16/delhi-twp-declares-local-state-emergency-suspends-some-services/5059666002/,"Coronavirus closures: City of Lansing, Ingham and Eaton counties, 3 townships declare emergencies",state_of_emergency,5256.0,40.5257,-104.713
Erie,CO,03-14-2020 23:41,https://www.wivb.com/health/coronavirus/breaking-3-coronavirus-cases-in-erie-county-confirmed/,"Buffalo, Erie County declare State of Emergency, closes schools Monday as 3 residents test positive for coronavirus",state_of_emergency,24234.0,40.0404,-105.0397
Evans,CO,03-23-2020 00:00,https://www.wtoc.com/2020/03/23/evans-county-declares-state-emergency-over-covid-concerns/,Evans County declares State of Emergency over COVID-19 concerns,state_of_emergency,20470.0,40.366,-104.7389
Flagler,CO,03-16-2020 19:15,https://www.palmcoastobserver.com/article/flagler-county-declares-local-state-of-emergency-for-covid-19-urges-residents-to-avoid-gatherings,"Flagler County declares local state of emergency for COVID-19, urges residents to avoid gatherings",state_of_emergency,549.0,39.2955,-103.0767
Fountain,CO,03-18-2020 00:49,https://www.fox21news.com/health/coronavirus/city-of-fountain-passes-declaration-of-emergency-in-response-to-covid-19/,City of Fountain passes Declaration of Emergency in Response to COVID-19,state_of_emergency,29804.0,38.6888,-104.6829
Genesee,CO,03-28-2020 12:59,https://www.mlive.com/news/flint/2020/03/genesee-county-jail-population-drops-during-coronavirus-emergency.html,Genesee County jail population drops during coronavirus emergency,None,3670.0,39.6873,-105.2719
Glendale,CO,03-26-2020 00:00,https://www.latimes.com/socal/glendale-news-press/news/story/2020-03-26/lendale-state-of-emergency-extended-to-april-30,"With local coronavirus cases rising rapidly, Glendale extends state of emergency to April 30",state_of_emergency,5158.0,39.7036,-104.9352
Glendale,CO,03-20-2020 00:00,https://www.latimes.com/socal/glendale-news-press/news/story/2020-03-20/tn-gnp-me-glendale-follows-safer-at-home-order,"Coronavirus: Glendale follows L.A. County’s ‘Safer at Home’ order, requiring the closure of more businesses",shelter_in_place,5158.0,39.7036,-104.9352
Glendale,CO,03-25-2020 00:00,https://www.latimes.com/socal/glendale-news-press/news/story/2020-03-25/glendale-bans-rent-increases-amid-coronavirus-emergency,"Glendale halts rent increases amid coronavirus emergency, as some tenants call for ‘rent freeze’",None,5158.0,39.7036,-104.9352
Howard,CO,03-15-2020 00:00,https://www.baltimoresun.com/coronavirus/bs-hs-howard-first-case-20200315-lpezhh7jd5g5jodvqzzh7w4blm-story.html,Howard County reports its first coronavirus case; Ball declares state of emergency; Columbia mall to close for a week; CA shuts down,state_of_emergency,882.0,38.4098,-105.8424
Inverness,CO,,https://www.inverness-courier.co.uk/news/customers-at-city-centre-food-shop-help-needy-families-195028/,Customers at Inverness city centre food shop help needy families during coronavirus emergency,None,1808.0,39.5788,-104.8624
Lake City,CO,03-27-2020 00:00,https://www.sltrib.com/news/2020/03/27/utah-governor-issue-new/,"Utah governor asks, Salt Lake City mayor orders residents to stay home to slow the spread of the coronavirus",shelter_in_place,379.0,38.0303,-107.3103
Lakewood,CO,03-20-2020 15:32,https://patch.com/colorado/lakewood-co/city-lakewood-declares-emergency-amid-coronavirus-spread,City Of Lakewood Declares Emergency Amid Coronavirus Spread,state_of_emergency,154958.0,39.6977,-105.1168
Lamar,CO,03-18-2020 00:00,https://www.wdam.com/2020/03/18/lamar-county-declares-emergency-response-covid-/,Lamar County declares emergency in response to COVID-19,state_of_emergency,7592.0,38.074,-102.6155
Lewis,CO,,http://www.chronline.com/news/lewis-county-activates-emergency-operations-center-for-coronavirus-support/article_b1860ae0-5f2d-11ea-9573-e3f4d8089650.html,Lewis County Activates Emergency Operations Center for Coronavirus Support,None,140.0,37.5017,-108.66
Longmont,CO,03-25-2020 01:55,https://www.timescall.com/coronavirus-longmont-city-council-to-hold-emergency-wednesday-work-session,Coronavirus: Longmont City Council to hold emergency Wednesday work session,None,99398.0,40.169000000000004,-105.0996
Louisville,CO,03-15-2020 23:07,https://www.coloradohometownweekly.com/louisville-declares-local-disaster-emergency-in-response-to-coronavirus,Louisville declares local disaster emergency in response to coronavirus,state_of_emergency,21128.0,39.9709,-105.1441
Loveland,CO,03-13-2020 23:12,https://www.reporterherald.com/loveland-declares-local-disaster-in-response-to-covid-19-activating-plans-and-authorizing-aid,"Loveland declares ‘local disaster’ in response to COVID-19, activating plans and authorizing aid",disaster_declaration,76701.0,40.4167,-105.0622
Montezuma,CO,,https://the-journal.com/articles/171720,Montezuma County declares health emergency as coronavirus spreads,state_of_emergency,69.0,39.5817,-105.8681
Montrose,CO,,https://www.montrosepress.com/free_access/city-of-montrose-to-declare-emergency-in-light-of-covid/article_93e2bb0c-663d-11ea-a615-472fd2913c58.html,City of Montrose to declare emergency in light of COVID-19,state_of_emergency,22912.0,38.469,-107.8589
Mountain View,CO,03-12-2020 00:00,https://www.mv-voice.com/news/2020/03/12/mountain-view-announces-state-of-emergency-over-spread-of-coronavirus,Mountain View announces state of emergency over spread of coronavirus,state_of_emergency,537.0,39.7748,-105.0567
Pierce,CO,,https://www.rivertowns.net/news/government-and-politics/5017043-Pierce-County-declares-state-of-emergency-over-COVID-19,Pierce County declares state of emergency over COVID-19,state_of_emergency,1113.0,40.6335,-104.7551
Pueblo,CO,03-28-2020 00:00,https://www.chieftain.com/news/20200328/pueblo-covid-19-testing-drive-yields-2-positive-results,Pueblo’s COVID-19 cases at 10 as state declared major disaster,disaster_declaration,142351.0,38.2713,-104.6105
Rico,CO,03-12-2020 00:00,https://www.militarytimes.com/news/coronavirus/2020/03/12/governor-of-puerto-rico-declares-emergency-activates-national-guard-in-response-to-coronavirus/,"Governor of Puerto Rico declares emergency, activates National Guard in response to coronavirus",state_of_emergency,266.0,37.6892,-108.0318
Rico,CO,03-15-2020 00:00,https://www.nytimes.com/2020/03/15/us/coronavirus-puerto-rico.html,Puerto Rico Orders Coronavirus Lockdown. Violators Could Be Fined.,lockdown,266.0,37.6892,-108.0318
Ridgway,CO,03-14-2020 13:25,https://www.ouraynews.com/news/covid-19-update-ridgway-town-administrator-declares-disaster,COVID-19 update: Ridgway Town Administrator declares disaster,disaster_declaration,973.0,38.1573,-107.7545
Silverthorne,CO,,https://www.summitdaily.com/news/silverthorne-and-breckenridge-make-plans-for-local-health-emergencies-related-to-coronavirus/,Silverthorne and Breckenridge make plans for local health emergencies related to coronavirus,None,18396.0,39.6564,-106.0871
Springfield,CO,03-24-2020 21:00,https://www.ozarksfirst.com/local-news/greene-county-and-city-of-springfield-issue-stay-at-home-orders-two-more-covid-19-deaths-confirmed/,"Greene Co. and City of Springfield issue “Stay at Home” orders, Two more COVID-19 deaths confirmed",shelter_in_place,1370.0,37.4049,-102.6189
Superior,CO,,https://www.wdio.com/coronavirus/douglas-county-state-of-emergency-covid-19/5675714/,"Douglas Co., City of Superior declare state of emergency in midst of COVID-19",state_of_emergency,12951.0,39.9341,-105.1588
Superior,CO,03-16-2020 00:00,https://kbjr6.com/2020/03/16/superior-douglas-co-to-declare-state-of-emergency-monday/,"Superior, Douglas Co. declare State of Emergency, share plans amid COVID-19 pandemic",state_of_emergency,12951.0,39.9341,-105.1588
Superior,CO,03-15-2020 21:45,https://www.coloradohometownweekly.com/superior-issues-emergency-declaration-due-to-the-coronavirus,Superior issues emergency declaration in response to coronavirus,state_of_emergency,12951.0,39.9341,-105.1588
Vail,CO,,https://www.vaildaily.com/news/town-of-vail-declares-a-state-of-emergency-for-covid-19/,Town of Vail declares a state of emergency for COVID-19,state_of_emergency,6017.0,39.6386,-106.3608
Vernon,CO,,https://lacrossetribune.com/community/vernonbroadcaster/news/public-health-emergency-declaration-declared-in-vernon-county-due-to/article_ef565e26-ed23-564c-aa71-507e149764e0.html,Public health emergency declaration declared in Vernon County due to COVID-19 pandemic,state_of_emergency,0.0,39.9399,-102.3074
Walsh,CO,03-16-2020 00:00,https://www.wgbh.org/news/local-news/2020/03/16/walsh-announces-emergency-fund-to-address-coronavirus-pandemic,Walsh Announces Emergency Fund To Address Coronavirus Pandemic,None,514.0,37.3861,-102.2801
Yuma,CO,,https://www.kawc.org/post/yuma-county-declares-emergency-due-covid-19,Yuma County Declares Emergency Due To COVID-19,state_of_emergency,3510.0,40.1239,-102.7164
Danbury,CT,03-16-2020 20:02,https://patch.com/connecticut/danbury/danbury-mayor-declares-state-emergency,Coronavirus Danbury: Mayor Declares 'State Of Emergency',state_of_emergency,177177.0,41.4016,-73.471
New Haven,CT,03-15-2020 17:51,https://patch.com/connecticut/newhaven/coronavirus-new-haven-mayor-declares-state-emergency,Coronavirus New Haven: Mayor Declares State Of Emergency,state_of_emergency,568144.0,41.3112,-72.9246
Torrington,CT,03-20-2020 15:56,https://dailyvoice.com/connecticut/litchfield/news/covid-19-torrington-declares-state-of-emergency/785342/,COVID-19: Torrington Declares State Of Emergency,state_of_emergency,40583.0,41.8349,-73.1281
West Haven,CT,03-17-2020 13:48,https://patch.com/connecticut/westhaven/coronavirus-west-haven-rossi-issues-emergency-order,Coronavirus West Haven: Rossi Issues Emergency Order,None,54843.0,41.2739,-72.9672
Bethel,DE,03-18-2020 12:51,https://patch.com/connecticut/bethel/coronavirus-bethel-town-declares-state-emergency,Coronavirus Bethel: Town Declares 'State Of Emergency',state_of_emergency,193.0,38.5706,-75.6194
Millsboro,DE,,https://www.capegazette.com/article/town-millsboro-adjusts-employee-schedules-due-covid-19-orders/199933,Town of Millsboro adjusts employee schedules due to COVID-19 orders,None,10578.0,38.5865,-75.3019
Milton,DE,03-27-2020 00:00,https://www.srpressgazette.com/news/20200327/coronavirus-milton-declares-covid-19-state-of-emergency,CORONAVIRUS: Milton declares COVID-19 state of emergency,state_of_emergency,2890.0,38.7751,-75.3104
Milton,DE,03-23-2020 00:00,https://www.pnj.com/story/news/2020/03/23/milton-declares-covid-19-state-emergency-combat-spread-coronavirus/2905012001/,"City of Milton declares COVID-19 state of emergency, after lengthy civil rights debate",state_of_emergency,2890.0,38.7751,-75.3104
Bay Harbor Islands,FL,03-11-2020 00:00,https://www.local10.com/news/local/2020/03/11/letter-from-bay-harbor-islands-mayor-town-declares-state-of-emergency-over-first-presumptive-positive-coronavirus-case/,Memo from Bay Harbor Islands mayor: Town declares state of emergency over possible presumptive positive coronavirus case,state_of_emergency,6006.0,25.8878,-80.1335
Boca Raton,FL,03-17-2020 19:25,https://www.bocamag.com/coronavirus-boca-state-of-emergency/,Coronavirus: City of Boca Raton Declares State of Emergency,state_of_emergency,98150.0,26.3749,-80.1077
Bonita Springs,FL,03-16-2020 00:00,https://www.naplesnews.com/story/news/local/communities/the-banner/2020/03/16/coronavirus-florida-bonita-springs-council-vote-state-emergency/5062833002/,Bonita Springs City Council declares state of emergency declaration due to coronavirus,state_of_emergency,396220.0,26.3559,-81.7861
Captiva,FL,,http://www.island-reporter.com/page/content.detail/id/591240/Coronavirus-update--Lee-issues-state-of-emergency.html?nav=5064,Coronavirus update: Lee issues state of emergency - CaptivaSanibel.com,state_of_emergency,194.0,26.5205,-82.191
Coconut Creek,FL,03-03-2020 00:00,https://www.local10.com/news/local/2020/03/03/amid-coronavirus-spread-students-participate-in-emergency-drill-in-coconut-creek/,"Amid coronavirus spread, students participate in emergency drill in Coconut Creek",None,61010.0,26.2802,-80.1842
Coconut Creek,FL,03-21-2020 00:00,https://miami.cbslocal.com/2020/03/21/coronavirus-prompts-coconut-creek-to-enact-nightly-curfew/,Coronavirus Prompts Coconut Creek To Enact Nightly Curfew,lockdown,61010.0,26.2802,-80.1842
Coral Gables,FL,03-25-2020 00:00,https://miami.cbslocal.com/2020/03/25/coronavirus-coral-gables-safer-at-home-emergency-order/,Coronavirus Impact: Coral Gables Issues ‘Safer At Home’ Emergency Order,shelter_in_place,51095.0,25.7037,-80.2715
Eglin AFB,FL,03-25-2020 21:34,https://www.wkrg.com/health/coronavirus/eglin-afb-declares-public-health-emergency-during-covid-19-outbreak/,Eglin AFB declares public health emergency during COVID-19 outbreak,state_of_emergency,2065.0,30.4592,-86.5499
Fort Walton Beach,FL,03-23-2020 15:55,https://www.wkrg.com/health/fort-walton-beach-declares-state-of-emergency-in-response-to-covid-19/,Fort Walton Beach Declares State of Emergency in Response to COVID-19,state_of_emergency,21895.0,30.4249,-86.6193
Greenacres,FL,03-18-2020 00:00,https://www.palmbeachpost.com/news/20200318/coronavirus-in-florida-greenacres-declares-state-of-emergency,Coronavirus in Florida: Greenacres declares state of emergency,state_of_emergency,40719.0,26.6272,-80.1372
Haines City,FL,03-20-2020 00:00,https://www.theledger.com/news/20200320/coronavirus-in-polk-haines-city-declares-state-of-emergency,Coronavirus in Polk: Haines City declares state of emergency,state_of_emergency,24304.0,28.11,-81.6157
Key Biscayne,FL,,http://www.islandernews.com/news/one-more-covid-confirmed-case-in-key-biscayne-governor-desantis/article_62a5ae7a-6db6-11ea-ac01-37dcdb9bb923.html,One more COVID19 confirmed case in Key Biscayne. Governor DeSantis issues quarantine order for NY-area travelers arriving in Florida,quarantine,13182.0,25.6908,-80.1653
Key West,FL,03-15-2020 17:24,https://www.nbcmiami.com/news/local/key-west-declares-state-of-emergency-over-coronavirus/2205997/,Key West Declares State of Emergency Over Coronavirus,state_of_emergency,32820.0,24.5637,-81.7768
Kissimmee,FL,,https://www.aroundosceola.com/news/city-kissimmee-issues-local-state-emergency-declaration-due-covid-19,City of Kissimmee issues local State of Emergency declaration due to COVID-19,state_of_emergency,374231.0,28.3042,-81.4164
Lakeland,FL,03-17-2020 00:00,https://www.theledger.com/news/20200317/lakeland-declares-state-of-emergency-in-wake-of-covid-19-pandemic,Lakeland declares state of emergency in wake of COVID-19 pandemic,state_of_emergency,291281.0,28.0557,-81.9545
Lighthouse Point,FL,03-20-2020 15:14,https://pointpubs.com/lighthouse-point-declares-state-of-emergency-new-measures-to-combat-coronavirus-news/,"LIGHTHOUSE POINT: STATE OF EMERGENCY, NEW MEASURES TO COMBAT CORONAVIRUS",state_of_emergency,11242.0,26.2785,-80.0891
Marco Island,FL,03-16-2020 00:00,https://www.marconews.com/story/news/2020/03/16/marco-island-declares-state-emergency-amid-coronavirus-threat/5063389002/,"City of Marco Island declares state of emergency, cancels events amid coronavirus threat",state_of_emergency,17904.0,25.933000000000003,-81.6993
Milton,FL,03-27-2020 00:00,https://www.srpressgazette.com/news/20200327/coronavirus-milton-declares-covid-19-state-of-emergency,CORONAVIRUS: Milton declares COVID-19 state of emergency,state_of_emergency,9986.0,30.6286,-87.0522
Milton,FL,03-23-2020 00:00,https://www.pnj.com/story/news/2020/03/23/milton-declares-covid-19-state-emergency-combat-spread-coronavirus/2905012001/,"City of Milton declares COVID-19 state of emergency, after lengthy civil rights debate",state_of_emergency,9986.0,30.6286,-87.0522
Naples,FL,03-16-2020 00:00,https://www.naplesnews.com/story/news/local/2020/03/16/coronavirus-florida-naples-declares-local-state-emergency-due-covid-19/5057556002/,Naples declares local state of emergency due to coronavirus,state_of_emergency,21948.0,26.1505,-81.7936
Naples,FL,03-16-2020 00:00,https://www.winknews.com/2020/03/16/naples-declares-state-of-emergency-in-response-to-coronavirus-election-still-held-tuesday/,"Naples declares state of emergency in response to coronavirus, election still held Tuesday",state_of_emergency,21948.0,26.1505,-81.7936
Niceville,FL,03-24-2020 00:00,https://www.thedestinlog.com/news/20200324/niceville-declares-state-of-emergency-as-coronavirus-spreads,Niceville declares state of emergency as coronavirus spreads,state_of_emergency,15249.0,30.529,-86.4753
North Port,FL,03-17-2020 00:00,https://www.heraldtribune.com/news/20200317/coronavirus-florida-north-port-declares-state-of-emergency,Coronavirus Florida: North Port declares state of emergency,state_of_emergency,195992.0,27.0577,-82.1975
Ocoee,FL,03-24-2020 00:00,https://www.clickorlando.com/news/local/2020/03/24/ocoee-mayor-declares-state-of-emergency-during-coronavirus-pandemic/,Ocoee mayor declares state of emergency during coronavirus pandemic,state_of_emergency,46402.0,28.5787,-81.5337
Oldsmar,FL,,http://www.suncoastnews.com/news/oldsmar-declares-covid--state-of-emergency/article_da6ff486-6d3b-11ea-802b-d7ad8de349a2.html,Oldsmar declares COVID-19 state of emergency,state_of_emergency,14617.0,28.0507,-82.6697
Palm Beach,FL,03-28-2020 00:00,https://www.palmbeachpost.com/news/20200328/coronavirus-florida-pbc-cases-top-300-as-delray-palm-beach-issue-stay-at-home-orders,"Coronavirus Florida: PBC cases top 300 as Delray, Palm Beach issue stay-at-home orders",shelter_in_place,8751.0,26.6932,-80.0406
Pioneer,FL,03-29-2020 09:30,https://www.columbiavalleypioneer.com/news/world-covid-19-update-u-s-expects-100000-deaths-oregon-declares-disaster/,"World COVID-19 update: U.S. expects 100,000 deaths; Oregon declares disaster – The Columbia Valley Pioneer",disaster_declaration,709.0,26.7258,-81.219
Sanibel,FL,03-18-2020 00:00,https://www.news-press.com/story/news/local/2020/03/18/sanibel-passes-resolution-local-state-emergency/2862903001/,Sanibel's city council passes resolution proclaiming local state of emergency over COVID-19,state_of_emergency,7363.0,26.4534,-82.1023
Venice,FL,03-16-2020 00:00,https://www.heraldtribune.com/news/20200316/coronavirus-florida-venice-declares-state-of-emergency,Coronavirus Florida: Venice declares state of emergency,state_of_emergency,23020.0,27.1164,-82.4135
Vernon,FL,03-29-2020 08:30,https://www.vernonmorningstar.com/news/world-covid-19-update-u-s-expects-100000-deaths-oregon-declares-disaster/,"World COVID-19 update: U.S. expects 100,000 deaths; Oregon declares disaster – Vernon Morning Star",disaster_declaration,678.0,30.6197,-85.7062
Vernon,FL,03-28-2020 17:00,https://www.vernonmorningstar.com/news/covid-19-world-update-enforceable-quarantine-in-nyc-france-orders-1-billion-masks/,COVID-19 world update: Enforceable quarantine in NYC?; France orders 1 billion masks – Vernon Morning Star,quarantine,678.0,30.6197,-85.7062
Winter Haven,FL,03-19-2020 00:00,https://www.theledger.com/news/20200319/coronavirus-in-polk-winter-haven-declares-state-of-emergency,Coronavirus in Polk: Winter Haven declares state of emergency,state_of_emergency,245237.0,28.0118,-81.7017
Alpharetta,GA,03-24-2020 12:20,https://patch.com/georgia/alpharetta/alpharetta-coronavirus-emergency-order-closes-parks-facilities,Alpharetta Coronavirus: Emergency Order Closes Parks Facilities,None,65799.0,34.0703,-84.2738
Auburn,GA,,https://www.mainstreetnews.com/barrow/news/coronavirus-update-county-auburn-issue-orders-banning-dine-in-service/article_f9eb1bc1-ecd8-5271-a64a-f9c9ce709631.html,"Coronavirus update: County, Auburn issue orders banning dine-in service at restaurants, closing certain businesses",school_business_closure,7622.0,34.0157,-83.8319
Bainbridge,GA,,https://www.wctv.tv/content/news/City-of-Bainbridge-declares-state-of-emergency-in-response-to-COVID-19-569072031.html,City of Bainbridge declares state of emergency in response to COVID-19,state_of_emergency,11558.0,30.9046,-84.5722
Braselton,GA,,https://www.gainesvilletimes.com/news/health-care/gainesville-hospital-erects-mobile-unit-help-response-coronavirus-pandemic/,"Gainesville, Braselton hospitals erecting mobile unit, urges people stay home in response to coronavirus pandemic",shelter_in_place,10947.0,34.1087,-83.8124
Cairo,GA,03-27-2020 14:01,https://www.wtxl.com/news/local-news/grady-county-city-of-cairo-declare-state-of-emergency-due-to-covid-19-pandemic,"Grady County, City of Cairo declare state of emergency due to COVID-19 pandemic",state_of_emergency,9244.0,30.879,-84.205
Canton,GA,03-23-2020 10:47,https://patch.com/georgia/canton-ga/coronavirus-canton-adopts-emergency-ordinance,Coronavirus: Canton Adopts Emergency Ordinance,None,27936.0,34.2466,-84.4901
Clayton,GA,,https://www.news-daily.com/news/drive-through-covid--test-site-in-clayton-county-requires/article_bcf260c6-6898-11ea-a82e-878a467fd716.html,Drive-through COVID-19 test site in Clayton County requires a doctor's referral,None,3706.0,34.8775,-83.4027
Cleveland,GA,,https://www.whitecountynews.net/local/city-cleveland-approves-emergency-regulations-prevent-spread-covid-19,City of Cleveland approves emergency regulations to prevent spread of COVID-19,state_of_emergency,5025.0,34.5971,-83.7622
College Park,GA,,https://www.henryherald.com/news/college-park-declares-state-of-emergency-imposes-business-curfew-due/article_03719536-c25d-516d-aeac-dad6105133fd.html,College Park declares state of emergency; imposes business curfew due to Coronavirus,state_of_emergency,14959.0,33.6364,-84.464
Dallas,GA,,https://www.fox5atlanta.com/news/dallas-county-declares-public-health-emergency-following-community-spread-case-of-coronavirus,Dallas County declares public health emergency following community-spread case of coronavirus,state_of_emergency,13237.0,33.9153,-84.8416
Dalton,GA,,https://www.suwanneedemocrat.com/news/ga_fl_news/dalton-declares-state-of-emergency-over-covid/article_c886a888-5098-5de6-ac5f-fd50365f7c57.html,Dalton declares state of emergency over COVID-19,state_of_emergency,86841.0,34.7691,-84.9712
Dawson,GA,,https://www.dawsonnews.com/local/dawson-county-declares-state-emergency-due-covid-19/,Dawson County declares state of emergency due to COVID-19,state_of_emergency,4088.0,31.7721,-84.4437
Decatur,GA,03-16-2020 00:00,https://decaturish.com/2020/03/decatur-city-commission-declares-state-of-emergency-due-to-coronavirus-pandemic/,Decatur City Commission declares state of emergency due to coronavirus pandemic,state_of_emergency,23832.0,33.7711,-84.2968
Douglas,GA,03-25-2020 18:57,https://patch.com/georgia/douglasville/county-health-board-debates-coronavirus-restrictions-icu-fills,"As ICU Fills, Shelter In Place Mandated: Douglas Co. Coronavirus",shelter_in_place,13960.0,31.5065,-82.8543
Douglas,GA,03-26-2020 18:15,https://patch.com/georgia/douglasville/douglasville-council-approves-coronavirus-shelter-place-order,Douglasville Coronavirus Shelter In Place Order OKed By Council,shelter_in_place,13960.0,31.5065,-82.8543
Douglasville,GA,03-26-2020 18:15,https://patch.com/georgia/douglasville/douglasville-council-approves-coronavirus-shelter-place-order,Douglasville Coronavirus Shelter In Place Order OKed By Council,shelter_in_place,33675.0,33.7384,-84.7068
Duluth,GA,,https://www.ajc.com/news/local/suwanee-duluth-declare-states-emergency-due-coronavirus/uI1kLznXY1ZlG6aXPN5XzI/,"Suwanee, Duluth declare states of emergency due to coronavirus",state_of_emergency,29463.0,34.0053,-84.1491
Empire,GA,03-21-2020 23:21,https://www.wsav.com/c19emergency/,LIST: COVID-19 emergency declarations in Coastal Empire and Lowcountry,state_of_emergency,416.0,32.3395,-83.2951
Empire,GA,03-25-2020 00:00,https://www.wtoc.com/2020/03/25/united-way-coastal-empire-creates-emergency-fund-response-covid-/,United Way of the Coastal Empire creates emergency fund in response to COVID-19,None,416.0,32.3395,-83.2951
Evans,GA,03-23-2020 00:00,https://www.wtoc.com/2020/03/23/evans-county-declares-state-emergency-over-covid-concerns/,Evans County declares State of Emergency over COVID-19 concerns,state_of_emergency,35204.0,33.5619,-82.1351
Fayetteville,GA,03-22-2020 00:00,https://thecitizen.com/2020/03/22/follow-covid-19-prevention-guidelines-urges-fayetteville-mayor-johnson/,"Follow Covid-19 prevention guidelines, urges Fayetteville Mayor Johnson",None,17802.0,33.45,-84.4709
Forest Park,GA,,https://www.news-daily.com/news/forest-park-orders-covid--shelter-in-place-for-days/article_2541f0ac-7126-11ea-a649-931578596c2d.html,"Forest Park orders COVID-19 ""shelter in place"" for 14 days starting Monday, March 30 at 10 p.m.",shelter_in_place,19823.0,33.6209,-84.359
Forest Park,GA,,https://www.news-daily.com/news/forest-park-imposes-covid--state-of-emergency-p-m/article_ab17ff76-6ed0-11ea-8c43-8be80361f86b.html,"Forest Park imposes COVID-19 state of emergency, 10 p.m. to 5 a.m. curfew through April 10",state_of_emergency,19823.0,33.6209,-84.359
Forest Park,GA,,https://www.news-daily.com/news/forest-park-mayor-angelyne-butler-advises-residents-of-city-services/article_889dad6e-6a44-11ea-893b-97d14b0a3d03.html,"Forest Park Mayor Angelyne Butler advises residents of city services, resources during COVID-19 emergency",None,19823.0,33.6209,-84.359
Grovetown,GA,03-23-2020 18:06,https://www.wjbf.com/lifestyle/health/coronavirus/grovetown-city-council-passes-emergency-ordinance-extending-coronavirus-protections-closures/,"Grovetown City Council passes emergency ordinance extending coronavirus protections, closures",state_of_emergency,14109.0,33.4504,-82.2073
Hinesville,GA,03-21-2020 00:00,https://www.wtoc.com/2020/03/21/hinesville-declares-state-emergency-due-covid-/,Hinesville declares State of Emergency due to COVID-19,state_of_emergency,51001.0,31.8247,-81.6135
Howard,GA,03-14-2020 10:11,https://www.msgr.com/article/putnam-county-sheriff-howard-sills-issues-statement-coronavirus-after-president-issues,Putnam County Sheriff Howard Sills issues statement on Coronavirus after President issues national emergency,state_of_emergency,0.0,32.5982,-84.3786
Johns Creek,GA,03-19-2020 11:09,https://patch.com/georgia/johnscreek/coronavirus-johns-creek-council-adopts-emergency-ordinance,Coronavirus: Johns Creek Council Adopts Emergency Ordinance,None,84350.0,34.0333,-84.2026
LaGrange,GA,03-17-2020 00:00,https://www.wtvm.com/2020/03/17/watch-live-emergency-meeting-held-troup-co-after-second-covid-case-confirmed/,State of emergency declared in LaGrange after second COVID-19 case confirmed in Troup Co.,state_of_emergency,35918.0,33.0274,-85.0384
Lawrenceville,GA,,https://www.ajc.com/news/local/lawrenceville-declares-state-emergency-over-coronavirus-pandemic/49XjeqQ5BxR6uhzZhmYyvO/,Lawrenceville declares state of emergency over coronavirus pandemic,state_of_emergency,29873.0,33.9525,-83.9928
Locust Grove,GA,,https://www.henryherald.com/news/city-of-locust-grove-declares-public-health-state-of-emergency/article_117d6aa8-6f94-11ea-b458-43cb3044293b.html,City of Locust Grove declares public health state of emergency due to coronavirus,state_of_emergency,6715.0,33.3436,-84.1066
Marietta,GA,03-28-2020 21:30,https://patch.com/georgia/marietta/coronavirus-city-marietta-declares-emergency-situation-allows-certain-alcohol-sales,"Coronavirus: City Of Marietta Declares Emergency Situation, Allows For Certain Alcohol Sales",state_of_emergency,61048.0,33.9532,-84.5422
Marietta,GA,03-26-2020 01:06,https://patch.com/georgia/marietta/coronavirus-city-marietta-declares-emergency-situation-provides-resources-small,"Coronavirus: City Of Marietta Declares Emergency Situation, Provides Resources For Small Businesses",state_of_emergency,61048.0,33.9532,-84.5422
Milton,GA,03-19-2020 11:01,https://patch.com/georgia/alpharetta/coronavirus-alpharetta-adopts-emergency-operations-ordinance,"Coronavirus: Alpharetta, Milton Adopt Emergency Ordinance",None,38924.0,34.1353,-84.3138
Moody AFB,GA,,https://www.valdostadailytimes.com/news/local_news/moody-afb-declares-war-on-covid/article_a43948be-6ea7-11ea-a49c-7bab29e7d509.html,Moody AFB declares war on COVID-19,disaster_declaration,580.0,30.9715,-83.1954
Norcross,GA,,https://www.ajc.com/news/local/norcross-declares-state-emergency-due-coronavirus/wfU0yXtBc3tbjjQh2gx1rO/,Norcross declares state of emergency due to coronavirus,state_of_emergency,16845.0,33.9379,-84.2065
Norcross,GA,,https://www.gwinnettdailypost.com/local/state-of-emergency-declared-in-norcross-amid-coronavirus-outbreak/article_27d12a26-6a15-11ea-8bd5-d3290d500744.html,State of emergency declared in Norcross amid coronavirus outbreak,state_of_emergency,16845.0,33.9379,-84.2065
Rockingham,GA,,https://www.greensboro.com/rockingham_now/news/rockingham-county-schools-releases-coronavirus-emergency-preparation-and-response-plan/article_d406c2a0-8dc2-544e-8953-e956e3c94264.html,Rockingham County Schools releases Coronavirus emergency preparation and response plan,None,302.0,31.5441,-82.4145
Roswell,GA,03-19-2020 11:38,https://patch.com/georgia/roswell/coronavirus-roswell-adopts-emergency-operations-ordinance,Coronavirus: Roswell Adopts Emergency Operations Ordinance,None,94786.0,34.0391,-84.3513
Sandy Springs,GA,03-19-2020 11:26,https://patch.com/georgia/sandysprings/coronavirus-sandy-springs-issues-state-emergency,Coronavirus: Sandy Springs Issues State Of Emergency,state_of_emergency,106739.0,33.9366,-84.3703
Savannah,GA,03-19-2020 00:00,https://www.savannahnow.com/news/20200319/savannah-mayor-announces-state-of-emergency-over-covid-19-mandating-business-closures-restrictions,"Savannah mayor announces state of emergency over COVID-19, mandating business closures, restrictions",state_of_emergency,280082.0,32.0281,-81.1785
Snellville,GA,,https://www.ajc.com/news/local/snellville-dacula-latest-gwinnett-declare-emergency-over-coronavirus/z9JPpV2L5OaBp1S3SqCNjN/,"Snellville, Dacula latest in Gwinnett to declare emergency over coronavirus",state_of_emergency,19738.0,33.8561,-84.0038
Statham,GA,,https://www.mainstreetnews.com/barrow/news/coronavirus-update-statham-council-approves-nighttime-curfew-ban-on-dine/article_29ce252d-9131-5ad0-bbb2-f3cbafccfd9d.html,"Coronavirus update: Statham council approves nighttime curfew, ban on dine-in food service, other measures",lockdown,2694.0,33.9646,-83.6024
Suwanee,GA,,https://www.ajc.com/news/local/suwanee-duluth-declare-states-emergency-due-coronavirus/uI1kLznXY1ZlG6aXPN5XzI/,"Suwanee, Duluth declare states of emergency due to coronavirus",state_of_emergency,19549.0,34.0507,-84.0687
Thomasville,GA,03-26-2020 02:53,https://www.wtxl.com/news/local-news/thomasville-declares-state-of-emergency-amid-coronavirus-pandemic,Thomasville declares state of emergency amid coronavirus pandemic,state_of_emergency,24271.0,30.8394,-83.9783
Tifton,GA,03-20-2020 00:00,https://www.walb.com/2020/03/20/tifton-declares-state-emergency-during-covid-outbreak/,Tifton declares state of emergency during COVID-19 outbreak,state_of_emergency,24314.0,31.4625,-83.5205
Tucker,GA,03-20-2020 00:00,https://decaturish.com/2020/03/tucker-mayor-imposes-9-p-m-curfew-to-curb-coronavirus-spread/,Tucker Mayor imposes 9 p.m. curfew to curb coronavirus spread,lockdown,36130.0,33.8436,-84.2021
Washington,GA,03-23-2020 18:02,https://www.13wmaz.com/article/news/health/coronavirus/washington-county-declares-state-of-emergency-issues-curfew-due-to-covid-19/93-ca4ea3a9-9250-4416-b7cb-67d7ca0330b6,"Washington, Dodge declare state of emergencies, issue curfews due to COVID-19",state_of_emergency,3330.0,33.7355,-82.7427
Winder,GA,,https://www.mainstreetnews.com/barrow/news/coronavirus-update-winder-council-approves-mandatory-nighttime-curfew-some-business/article_b602d6fc-5bc8-5c71-bcc3-5edb93c407ee.html,"Coronavirus update: Winder council approves mandatory nighttime curfew, some business closures, bans dine-in service at restaurants, most public gatherings",lockdown,43583.0,33.9917,-83.7218
Woodstock,GA,,https://www.tribuneledgernews.com/woodstock-mayor-issues-executive-order-to-consolidate-city-virus-responses/article_7158386a-6ee8-11ea-9fda-37e9dccab3b2.html,Woodstock mayor issues executive order to consolidate city virus responses,None,31564.0,34.1026,-84.5085
Bonners Ferry,ID,,https://www.kootenaivalleytimes.com/boundary/bonners-ferry-mayor-declares-covid--emergency/article_8bfd8ae4-6afb-11ea-a92f-03c3ce906469.html,Bonners Ferry Mayor declares COVID-19 emergency,state_of_emergency,2675.0,48.6928,-116.3183
Caldwell,ID,03-20-2020 11:09,https://patch.com/new-jersey/caldwells/officials-declare-coronavirus-emergency-north-caldwell,Officials Declare Coronavirus 'Emergency' In North Caldwell,state_of_emergency,54660.0,43.6454,-116.6599
Crouch,ID,03-22-2020 03:16,https://www.kivitv.com/news/city-of-crouch-asking-people-to-stay-away-from-the-garden-valley-area-amid-covid-19-concerns,City of Crouch mayor declaring local disaster emergency as people amid COVID-19 concerns,state_of_emergency,170.0,44.11600000000001,-115.9728
Moscow,ID,03-12-2020 22:16,https://www.krem.com/article/news/health/coronavirus/pullman-state-of-emergency-covid-19/293-f078ac46-29c6-4dca-bc34-4f1ee0588029,Moscow issues coronavirus Emergency Proclamation,state_of_emergency,25579.0,46.7307,-116.9986
Pocatello,ID,,https://www.idahostatejournal.com/news/local/pocatello-joins-chubbuck-bingham-county-in-declaring-coronavirus-emergencies/article_19bea737-3aeb-5668-b18e-5cd2988c1bc2.html,"Pocatello joins Chubbuck, Bingham County in declaring coronavirus emergencies",state_of_emergency,71020.0,42.8716,-112.4652
Twin Falls,ID,,https://magicvalley.com/news/local/govt-and-politics/twin-falls-city-county-issue-declarations-of-emergency-in-response/article_4a4ccb47-f345-5821-9411-5e717eccc045.html,"Twin Falls city, county issue declarations of emergency in response to COVID-19",state_of_emergency,54455.0,42.5648,-114.4617
Aurora,IL,03-16-2020 00:00,https://www.chicagotribune.com/suburbs/aurora-beacon-news/ct-abn-aurora-virus-st-0317-20200316-tglozt6gynapjpjwqym7ndeqgi-story.html,State of emergency declared in Aurora due to coronavirus outbreak,state_of_emergency,200965.0,41.7637,-88.2901
Baldwin,IL,03-27-2020 18:43,https://communityjournal.net/baldwin-senate-colleagues-urge-fda-to-change-discriminatory-blood-donation-policies-to-combat-coronavirus-pandemic/,"Baldwin, Senate Colleagues Urge FDA to Change Discriminatory Blood Donation Policies to Combat Coronavirus Pandemic",None,349.0,38.1838,-89.8451
Buffalo,IL,03-18-2020 00:00,https://www.chicagotribune.com/suburbs/buffalo-grove/ct-bgc-emergency-declaration-coronavirus-tl-0326-20200318-jkddx4kkrbe6xbk476evjram64-story.html,Buffalo Grove mayor declares a local state of emergency after village employee may have been exposed to COVID-19,state_of_emergency,485.0,39.8499,-89.4089
Buffalo Grove,IL,03-18-2020 00:00,https://www.chicagotribune.com/suburbs/buffalo-grove/ct-bgc-emergency-declaration-coronavirus-tl-0326-20200318-jkddx4kkrbe6xbk476evjram64-story.html,Buffalo Grove mayor declares a local state of emergency after village employee may have been exposed to COVID-19,state_of_emergency,41226.0,42.1674,-87.9616
Cahokia,IL,,https://www.riverbender.com/articles/details/covid19-pandemic-forces-immediate-closure-of-state-parks-including-horseshoe-lake-pere-marquette-beaver-dam-lewis-and-clark-cahokia-mounds-parks-40579.cfm,"COVID-19 Pandemic Forces Immediate Closure Of State Parks Including Horseshoe Lake, Pere Marquette, Beaver Dam, Lewis And Clark, Cahokia Mounds Parks",None,14151.0,38.5649,-90.1792
Caledonia,IL,03-28-2020 17:00,https://www.caledoniacourier.com/news/covid-19-world-update-enforceable-quarantine-in-nyc-france-orders-1-billion-masks/,COVID-19 world update: Enforceable quarantine in NYC?; France orders 1 billion masks – Caledonia Courier,quarantine,191.0,42.3686,-88.8939
Creston,IL,03-28-2020 18:00,https://www.crestonvalleyadvance.ca/news/covid-19-world-update-enforceable-quarantine-in-nyc-france-orders-1-billion-masks/,COVID-19 world update: Enforceable quarantine in NYC?; France orders 1 billion masks – Creston Valley Advance,quarantine,647.0,41.9335,-88.9742
Decatur,IL,,https://herald-review.com/news/local/govt-and-politics/read-the-document-city-of-decatur-declares-emergency-related-to/article_62afa8de-cf42-513f-9065-0fe6700224a8.html,READ THE DOCUMENT: City of Decatur declares emergency related to COVID-19,state_of_emergency,88997.0,39.8556,-88.9337
Deerfield,IL,03-17-2020 12:11,https://patch.com/illinois/deerfield/deerfield-declares-state-emergency-response-coronavirus,Deerfield Declares State Of Emergency In Response To Coronavirus,state_of_emergency,18946.0,42.1654,-87.8516
Des Plaines,IL,03-04-2020 15:10,https://www.journal-topics.com/articles/des-plaines-emergency-management-keeps-eye-on-coronavirus/,Des Plaines Emergency Management Keeps Eye On Coronavirus,None,58193.0,42.0344,-87.9008
Evanston,IL,03-16-2020 09:16,https://patch.com/illinois/evanston/evanston-mayor-announces-state-emergency,Coronavirus: Evanston Mayor Announces State Of Emergency,state_of_emergency,74756.0,42.0463,-87.6942
Fayetteville,IL,03-13-2020 15:04,https://www.5newsonline.com/article/news/health/coronavirus/state-of-emergency-fayetteville-coronavirus/527-0e904612-698c-4297-b282-79bf9ae70d15,Fayetteville mayor declares State of Emergency over coronavirus threat,state_of_emergency,341.0,38.3775,-89.7967
Fayetteville,IL,03-18-2020 00:00,https://arktimes.com/arkansas-blog/2020/03/18/fayetteville-reports-coronavirus-case-legislator-urges-governr-to-shut-down-to-essentials,Fayetteville reports coronavirus case; legislator urges governor to shut down to essentials,None,341.0,38.3775,-89.7967
Forest Park,IL,03-18-2020 00:00,https://www.chicagotribune.com/suburbs/oak-park/ct-oak-mayors-response-covid-19-tl-0326-20200318-tpwctduzjbblra65stygyk3gmy-story.html,"Oak Park issues shelter-in-place order to slow COVID-19 spread as River Forest, Forest Park leaders urge residents to comply as well",shelter_in_place,13951.0,41.8683,-87.8157
Genoa,IL,03-18-2020 00:00,https://www.daily-chronicle.com/2020/03/18/mayor-of-genoa-declares-state-of-emergency-as-covid-19-spread-forces-social-distancing/az8ckqj/,Mayor of Genoa declares state of emergency as COVID-19 spread forces social distancing,state_of_emergency,6446.0,42.0929,-88.6966
Golf,IL,,https://www.news-gazette.com/coronavirus/thursday-s-coronavirus-updates-state-orders-golf-courses-closed/article_27417072-6f81-11ea-946e-53c837601846.html,Thursday's coronavirus updates | State orders golf courses closed,None,498.0,42.0586,-87.785
Highland,IL,03-16-2020 16:31,https://patch.com/illinois/highlandpark/highland-park-mayor-declares-state-emergency-over-coronavirus,Highland Park Coronavirus: Mayor Declares State Of Emergency,state_of_emergency,11421.0,38.7602,-89.681
Highland Park,IL,03-16-2020 16:31,https://patch.com/illinois/highlandpark/highland-park-mayor-declares-state-emergency-over-coronavirus,Highland Park Coronavirus: Mayor Declares State Of Emergency,state_of_emergency,29767.0,42.1823,-87.8105
Huntley,IL,03-18-2020 16:40,https://patch.com/illinois/huntley/coronavirus-huntley-closures-amid-local-state-emergency,Coronavirus: Huntley Closures Amid Local State Of Emergency,state_of_emergency,27207.0,42.16,-88.43299999999999
Joliet,IL,03-16-2020 16:32,https://patch.com/illinois/joliet/joliet-mayor-takes-these-steps-declares-state-emergency,Joliet Coronavirus: Mayor Declares State Of Emergency,state_of_emergency,148462.0,41.5189,-88.1499
Lake Bluff,IL,03-18-2020 23:00,https://patch.com/illinois/lakeforest/gyms-ordered-closed-lake-bluff-declares-coronavirus-emergency,Gyms Ordered Closed As Lake Bluff Declares Coronavirus Emergency,state_of_emergency,5662.0,42.2826,-87.851
Marion,IL,,https://www.salemreporter.com/posts/2027/marion-county-sees-first-covid-19-case-as-governor-declares-a-state-of-emergency,Marion County sees first COVID-19 case as governor declares a state of emergency | Salem Reporter,state_of_emergency,17762.0,37.7171,-88.9275
Marseilles,IL,03-18-2020 00:00,https://www.mywebtimes.com/2020/03/18/marseilles-mayor-gets-emergency-powers-for-coronavirus-precaution/a3k60yv/,Marseilles mayor gets 'emergency' powers for coronavirus precaution,None,4690.0,41.3099,-88.685
Mattoon,IL,,https://jg-tc.com/news/local/mattoon-declares-state-of-emergency-due-to-coronavirus-pandemic/article_a17d507b-e3fc-5f93-9414-9a0494e0e214.html,Mattoon declares state of emergency due to coronavirus pandemic,state_of_emergency,18293.0,39.4774,-88.3627
Modesto,IL,,https://www.modbee.com/news/article241376841.html,Illinois governor imposes stay-at-home order to curb virus | Modesto Bee,shelter_in_place,178.0,39.4789,-89.9803
Mounds,IL,,https://www.riverbender.com/articles/details/covid19-pandemic-forces-immediate-closure-of-state-parks-including-horseshoe-lake-pere-marquette-beaver-dam-lewis-and-clark-cahokia-mounds-parks-40579.cfm,"COVID-19 Pandemic Forces Immediate Closure Of State Parks Including Horseshoe Lake, Pere Marquette, Beaver Dam, Lewis And Clark, Cahokia Mounds Parks",None,713.0,37.1145,-89.2024
Mount Vernon,IL,03-17-2020 20:20,https://abc7news.com/health/mount-vernon-declares-state-of-emergency/6022075/,"Coronavirus Updates: Mount Vernon, New York declares state of emergency",state_of_emergency,15672.0,38.314,-88.9174
Mundelein,IL,03-18-2020 00:00,https://www.chicagotribune.com/suburbs/mundelein/ct-mun-mundelein-closes-village-hall-tl-0326-20200318-gxsts5wphjesjnpqdelzb4tzxm-story.html,Mundelein closes village hall; declares state of emergency along with Vernon Hills amid coronavirus outbreak,state_of_emergency,31385.0,42.2692,-88.0101
Naperville,IL,03-18-2020 00:50,https://patch.com/illinois/naperville/naperville-declares-state-emergency-amid-coronavirus-concerns,Naperville Declares State Of Emergency Amid Coronavirus Concerns,state_of_emergency,147682.0,41.7483,-88.1657
Niles,IL,03-16-2020 16:18,https://www.journal-topics.com/articles/niles-mayor-declares-coronavirus-public-health-emergency/,Niles Mayor Declares Coronavirus Public Health Emergency,state_of_emergency,29482.0,42.0279,-87.81
Oak Park,IL,03-18-2020 00:00,https://chicago.suntimes.com/coronavirus/2020/3/18/21186071/coronavirus-oak-park-state-emergency-shelter-place,"Oak Park declares state of emergency, issues ‘shelter in place’ order over coronavirus",state_of_emergency,52261.0,41.8872,-87.7899
Oak Park,IL,03-12-2020 00:00,https://www.chicagotribune.com/suburbs/oak-park/ct-oak-park-coronavirus-emergency-tl-0319-20200312-ysjoaqkwsbel7f57gxp5wpya5a-story.html,Oak Park trustees to declare local public health emergency in response to coronavirus,state_of_emergency,52261.0,41.8872,-87.7899
Oswego,IL,,https://www.chicagotribune.com/suburbs/aurora-beacon-news/ct-abn-oswego-coronavirus-emergency-st-0318-20200317-7zw4uszxujc5phyipa33lcnkym-story.html,"Oswego, Kendall declare states of emergency due to coronavirus",state_of_emergency,34833.0,41.6834,-88.3372
Pekin,IL,03-18-2020 23:32,https://www.centralillinoisproud.com/news/coronavirus/pekin-mayor-declares-state-of-emergency-in-response-to-covid-19/,"Pekin City Council renews mayors emergency powers, in response to COVID-19",None,32731.0,40.5677,-89.6263
Pekin,IL,03-19-2020 00:00,https://week.com/2020/03/19/coronavirus-pandemic-forces-state-of-emergnency-declaration-in-pekin/,Coronavirus pandemic forces state of emergency declaration in Pekin,state_of_emergency,32731.0,40.5677,-89.6263
Plainfield,IL,03-23-2020 19:38,https://patch.com/illinois/plainfield/plainfield-mayor-renews-emergency-declaration-coronavirus,Plainfield Mayor Renews Emergency Declaration For Coronavirus,state_of_emergency,43926.0,41.6205,-88.226
Raleigh,IL,,https://www.newsobserver.com/news/article241169916.html,Illinois governor orders schools closed due to coronavirus | Raleigh News & Observer,school_business_closure,338.0,37.8262,-88.5304
River Forest,IL,03-18-2020 00:00,https://www.chicagotribune.com/suburbs/oak-park/ct-oak-mayors-response-covid-19-tl-0326-20200318-tpwctduzjbblra65stygyk3gmy-story.html,"Oak Park issues shelter-in-place order to slow COVID-19 spread as River Forest, Forest Park leaders urge residents to comply as well",shelter_in_place,11132.0,41.895,-87.8194
River Forest,IL,,"http://www.oakpark.com/News/Articles/3-11-2020/Oak-Park,-River-Forest-respond-to-coronavirus-emergency/","Oak Park, River Forest respond to coronavirus emergency",None,11132.0,41.895,-87.8194
Riverwoods,IL,03-24-2020 13:24,https://patch.com/illinois/deerfield/coronavirus-emergency-declaration-made-riverwoods,Coronavirus: Emergency Declaration Made In Riverwoods,state_of_emergency,3626.0,42.1723,-87.8951
Salem,IL,,https://www.salemreporter.com/posts/2027/marion-county-sees-first-covid-19-case-as-governor-declares-a-state-of-emergency,Marion County sees first COVID-19 case as governor declares a state of emergency | Salem Reporter,state_of_emergency,7954.0,38.6278,-88.9579
St. Charles,IL,03-19-2020 11:21,https://patch.com/illinois/stcharles-il/st-charles-mayor-granted-emergency-powers,St. Charles Issues Coronavirus State Of Emergency Declaration,state_of_emergency,32714.0,41.9193,-88.311
Vernon,IL,03-17-2020 20:20,https://abc7news.com/health/mount-vernon-declares-state-of-emergency/6022075/,"Coronavirus Updates: Mount Vernon, New York declares state of emergency",state_of_emergency,124.0,38.8014,-89.0896
Vernon Hills,IL,03-18-2020 00:00,https://www.chicagotribune.com/suburbs/mundelein/ct-mun-mundelein-closes-village-hall-tl-0326-20200318-gxsts5wphjesjnpqdelzb4tzxm-story.html,Mundelein closes village hall; declares state of emergency along with Vernon Hills amid coronavirus outbreak,state_of_emergency,26253.0,42.233999999999995,-87.9607
Willowbrook,IL,03-15-2020 00:00,https://www.chicagotribune.com/suburbs/naperville-sun/ct-nvs-dupage-coronavirus-nursing-home-st-0316-20200315-hzwo5eb4dbhhfmdlzpb7sbpoha-story.html,DuPage declares disaster after Willowbrook nursing home resident tests positive for coronavirus,disaster_declaration,8521.0,41.7635,-87.9456
Winnebago,IL,03-26-2020 20:18,https://www.mystateline.com/news/local-news/live-winnebago-county-health-department-coronavirus-briefing/,"Winnebago County Health officials urge ‘stay at home,’ warn surge of COVID-19 cases will overwhelm healthcare system",shelter_in_place,2989.0,42.2671,-89.2337
Woodridge,IL,03-19-2020 14:48,https://patch.com/illinois/woodridge/woodridge-declares-emergency-amid-coronavirus-concerns,Woodridge Declares Emergency Amid Coronavirus Concerns,state_of_emergency,33598.0,41.7368,-88.0408
Yorkville,IL,,http://www.wspynews.com/news/local/yorkville-aldermen-approve-emergency-powers-amid-covid--pandemic-though/article_a1bcfb40-6e3d-11ea-8bb3-b365e090760b.html,Yorkville Aldermen Approve Emergency Powers Amid COVID-19 Pandemic Though Actual Implementation Not Sought,None,19388.0,41.6561,-88.4508
Alexandria,IN,03-14-2020 19:44,https://alexandrialivingmagazine.com/news/city-of-alexandria-declares-local-emergency-coronavirus-march-2020/,Second Alexandria Resident Diagnosed; City of Alexandria Declares Local Emergency for Coronavirus,state_of_emergency,5015.0,40.2583,-85.676
Amo,IN,03-19-2020 00:38,https://www.ocregister.com/simon-closing-del-amo-brea-ontario-mission-viejo-malls-to-stop-coronavirus-spread,"Coronavirus forces closure of 10 area malls: Del Amo, Brea, Mission Viejo, Ontario Mills and more",None,422.0,39.6889,-86.6125
Anderson,IN,03-26-2020 00:00,https://www.independentmail.com/story/news/local/2020/03/26/anderson-county-approves-coronavirus-emergency-order-chaotic-meeting/2914653001/,Anderson County approves coronavirus emergency order in chaotic teleconference meeting,state_of_emergency,86481.0,40.0874,-85.69200000000001
Andrews,IN,03-16-2020 00:00,https://www.airforcetimes.com/news/your-air-force/2020/03/16/jb-andrews-declares-public-health-emergency-travis-afb-airman-and-dependent-test-positive-for-covid-19/,"JB Andrews declares health emergency; Travis airman, dependent test positive for virus",state_of_emergency,1133.0,40.8605,-85.6022
Auburn,IN,,https://auburnpub.com/news/local/auburn-school-board-declares-covid--a-district-emergency/article_2e13f119-6f7d-55e9-a5fc-1b9875b97a16.html,Auburn school board declares COVID-19 a district emergency,state_of_emergency,22457.0,41.3666,-85.0559
Bainbridge,IN,,https://www.wctv.tv/content/news/City-of-Bainbridge-declares-state-of-emergency-in-response-to-COVID-19-569072031.html,City of Bainbridge declares state of emergency in response to COVID-19,state_of_emergency,749.0,39.7615,-86.8116
Bedford,IN,,https://www.newsadvance.com/news/local/bedford-county-planning-to-declare-local-emergency-in-response-to/article_56cd0b8f-611f-53d0-9240-878f24141445.html,Bedford County planning to declare local emergency in response to COVID-19,state_of_emergency,14845.0,38.8602,-86.4895
Bethany,IN,03-21-2020 11:50,https://www.thebatavian.com/billie-owens/town-of-bethany-declares-state-of-emergency-due-to-covid-19-issues-emergency-orders,"Town of Bethany declares State of Emergency due to COVID-19, issues Emergency Orders",state_of_emergency,86.0,39.5337,-86.3778
Bloomfield,IN,,https://www.courant.com/community/bloomfield/hc-news-bloomdfield-coronavirus-local-state-of-emergency-20200317-2jwj3ood4fad3g3lb5dm45noga-story.html,Bloomfield declares local state of emergency due to coronavirus,state_of_emergency,2413.0,39.0262,-86.9373
Bloomfield,IN,,https://www.tapinto.net/towns/bloomfield/sections/government/articles/bloomfield-declares-state-of-emergency-in-response-to-covid-19-coronavirus,Bloomfield Declares State of Emergency in Response to Covid-19/Coronavirus,state_of_emergency,2413.0,39.0262,-86.9373
Bluffton,IN,03-16-2020 00:00,https://www.blufftontoday.com/news/20200316/coronavirus-bluffton-beaufort-county-declare-state-of-emergency,"Coronavirus: Bluffton, Beaufort County declare state of emergency",state_of_emergency,10085.0,40.7426,-85.17299999999999
Bryant,IN,03-30-2020 00:00,https://www.theguardian.com/commentisfree/2020/mar/30/if-coronavirus-forces-childcare-services-to-close-for-good-parents-will-be-left-stranded,"If coronavirus forces childcare services to close for good, parents will be left stranded | Lisa Bryant",None,250.0,40.5358,-84.9633
Burlington,IN,03-27-2020 02:30,https://myfox8.com/news/coronavirus/city-of-burlington-declares-state-of-emergency-amid-coronavirus-pandemic/,City of Burlington declares State of Emergency amid coronavirus pandemic,state_of_emergency,600.0,40.4808,-86.3944
Butler,IN,03-28-2020 00:00,https://pittsburgh.cbslocal.com/2020/03/28/butler-westmoreland-coronavirus-orders/,Westmoreland Co. And Butler Co. Under ‘Stay At Home’ Orders Due To Spread Of Coronavirus,shelter_in_place,2661.0,41.4274,-84.8721
Cambridge City,IN,03-24-2020 00:00,https://www.thecrimson.com/article/2020/3/24/city-council-coronavirus-measures/,Cambridge City Council Passes Measures to Mitigate Effects of Coronavirus,None,3615.0,39.8125,-85.1703
Camden,IN,03-16-2020 00:00,https://www.courierpostonline.com/story/news/local/south-jersey/2020/03/16/camden-county-declares-state-emergency-stem-covid-19-spread-coronavirus-camden-city-closures/5060457002/,"Camden County, city declare states of emergency to stem COVID-19 spread",state_of_emergency,607.0,40.6099,-86.5392
